City_ID,City,Lat,Lng,Max Temp,Humidity,Cloudiness,Wind Speed,Country,Date
0,vershino-darasunskiy,52.35,115.5167,-16.72,93,17,1.64,RU,1699734065
1,edinburgh of the seven seas,-37.0676,-12.3116,14.76,90,87,9.62,SH,1699733791
2,blackmans bay,-43.0167,147.3167,10.96,69,100,1.34,AU,1699734067
3,vilyuchinsk,52.9306,158.4028,2.15,73,59,19.66,RU,1699734068
4,puerto baquerizo moreno,-0.9,-89.6,28.55,61,40,6.69,EC,1699734069
5,chinde,26.8418,88.0763,12.38,70,1,2.26,NP,1699734069
6,arraias,-12.9288,-46.9437,35.74,17,38,1.09,BR,1699734070
7,santiago,-33.4569,-70.6483,17.0,78,100,4.63,CL,1699733467
8,college,64.8569,-147.8028,-9.03,81,100,1.54,US,1699734072
9,kodiak,57.79,-152.4072,1.73,55,75,10.8,US,1699734073
10,iqaluit,63.7506,-68.5145,-9.15,78,100,5.66,CA,1699733917
11,port-aux-francais,-49.35,70.2167,3.25,66,11,6.32,TF,1699733792
12,salta,-24.7859,-65.4117,39.76,17,20,9.26,AR,1699734077
13,nagqu,31.5,92.0,-3.92,63,100,4.39,CN,1699734078
14,manokwari,-0.8667,134.0833,25.72,80,100,1.89,ID,1699734079
15,fale old settlement,-9.3852,-171.2468,28.61,74,94,3.22,TK,1699734079
16,yellowknife,62.456,-114.3525,0.23,100,100,4.63,CA,1699734080
17,ushuaia,-54.8,-68.3,6.81,65,75,8.05,AR,1699733812
18,taupo,-38.6833,176.0833,11.55,62,15,1.36,NZ,1699734082
19,aasiaat,68.7098,-52.8699,-11.14,77,100,3.61,GL,1699734083
20,grand falls-windsor,48.9332,-55.6649,1.95,87,100,0.89,CA,1699734084
21,lihue,21.9789,-159.3672,28.58,74,100,6.17,US,1699734085
22,punta arenas,-53.15,-70.9167,8.06,49,0,9.26,CL,1699734085
23,fukura,34.25,134.7167,12.0,87,75,4.12,JP,1699734086
24,waitangi,-43.9535,-176.5597,12.68,83,3,3.13,NZ,1699734087
25,grytviken,-54.2811,-36.5092,3.03,91,54,1.26,GS,1699734088
26,nefta,33.8731,7.8777,18.14,38,1,1.13,TN,1699734089
27,udachny,66.4167,112.4,-11.97,87,98,5.3,RU,1699734090
28,invercargill,-46.4,168.35,16.12,55,100,7.15,NZ,1699734025
29,saipan,15.1355,145.701,28.39,78,40,6.69,MP,1699734092
30,warrenton,-28.114,24.8475,26.45,24,13,3.72,ZA,1699733960
31,stanley,54.868,-1.6985,4.6,95,75,1.03,GB,1699734093
32,bougouni,11.417,-7.479,27.46,28,100,1.31,ML,1699734094
33,codrington,-38.2667,141.9667,12.32,62,100,3.92,AU,1699733833
34,hamilton,39.1834,-84.5333,12.02,49,0,5.14,US,1699734096
35,biga,40.2281,27.2422,18.52,72,99,6.02,TR,1699734096
36,puerto natales,-51.7236,-72.4875,10.25,40,40,9.77,CL,1699734097
37,dunedin,-45.8742,170.5036,15.45,64,5,2.79,NZ,1699734099
38,timbuktu,16.7735,-3.0074,30.86,14,0,3.74,ML,1699734099
39,bredasdorp,-34.5322,20.0403,15.65,74,4,5.45,ZA,1699734101
40,avarua,-21.2078,-159.775,24.03,83,100,2.57,CK,1699734102
41,qamdo,31.1667,97.2333,-3.55,56,100,1.56,CN,1699734103
42,mount gambier,-37.8333,140.7667,7.49,86,4,1.53,AU,1699733917
43,dubbo,-32.25,148.6167,22.07,60,5,4.12,AU,1699733894
44,kayenta,36.7278,-110.2546,10.23,35,0,1.66,US,1699734105
45,sitka,57.0531,-135.33,5.94,75,75,3.6,US,1699734106
46,jamestown,42.097,-79.2353,7.51,66,100,2.57,US,1699734107
47,papatowai,-46.5619,169.4708,13.69,52,100,5.82,NZ,1699734107
48,vilyuysk,63.7553,121.6247,-8.89,90,95,4.47,RU,1699734108
49,yushu,44.8,126.5333,-18.8,99,64,2.4,CN,1699734109
50,puerto ayora,-0.7393,-90.3518,28.98,91,69,3.58,EC,1699734110
51,olonkinbyen,70.9221,-8.7187,1.01,98,100,5.62,SJ,1699734111
52,flying fish cove,-10.4217,105.6791,24.82,83,40,4.12,CX,1699734112
53,albany,42.6001,-73.9662,7.42,56,4,0.45,US,1699733942
54,ribeira grande,38.5167,-28.7,20.22,94,75,7.15,PT,1699734113
55,ola,59.5833,151.2833,-18.06,82,6,5.34,RU,1699734114
56,adamstown,-25.066,-130.1015,22.8,82,48,6.01,PN,1699734115
57,palikir - national government center,6.9248,158.1611,24.41,100,100,1.54,FM,1699734077
58,terrace,54.5163,-128.6035,6.23,93,100,5.66,CA,1699734117
59,sumbe,-11.2061,13.8437,25.19,88,100,2.49,AO,1699734117
60,sassnitz,54.5167,13.65,6.56,83,100,4.0,DE,1699734118
61,axim,4.8699,-2.2405,25.98,89,9,3.17,GH,1699734119
62,bethel,41.3712,-73.414,11.2,56,100,2.57,US,1699733955
63,bilibino,68.0546,166.4372,-30.82,100,37,1.89,RU,1699734121
64,irkutsk,52.2978,104.2964,-11.51,85,0,3.13,RU,1699734122
65,mosjoen,65.836,13.1908,-0.71,64,2,3.6,NO,1699734127
66,assesse,50.3693,5.022,6.62,91,22,2.47,BE,1699734128
67,tara,56.8944,74.371,0.47,99,100,1.7,RU,1699734129
68,ushirombo,-3.4919,31.9639,20.08,90,100,1.75,TZ,1699733897
69,quimili,-27.6333,-62.4167,39.12,31,0,2.13,AR,1699734131
70,new norfolk,-42.7826,147.0587,11.62,81,93,1.53,AU,1699734132
71,brookings,44.3114,-96.7984,10.21,56,0,4.12,US,1699734133
72,georgetown,5.4112,100.3354,27.75,95,20,1.03,MY,1699734134
73,lebu,-37.6167,-73.65,11.29,51,12,6.93,CL,1699734135
74,kartaly,53.0522,60.6467,3.34,97,100,3.13,RU,1699734138
75,auki,-8.7676,160.7034,25.62,91,100,4.77,SB,1699734139
76,queenstown,-31.8976,26.8753,14.94,79,90,3.66,ZA,1699734140
77,port mathurin,-19.6833,63.4167,24.85,82,6,2.27,MU,1699734140
78,kuusamo,65.9667,29.1833,-10.98,92,0,1.54,FI,1699734141
79,west island,-12.1568,96.8225,25.99,83,40,5.14,CC,1699734142
80,sinabang,2.4803,96.3801,26.01,85,100,1.8,ID,1699734143
81,margaret river,-33.95,115.0667,11.06,77,77,6.33,AU,1699734145
82,port elizabeth,-33.918,25.5701,18.51,72,0,2.68,ZA,1699734004
83,palang,23.2167,90.35,22.41,70,0,3.1,BD,1699734147
84,la'ie,21.6477,-157.9253,28.98,73,22,2.68,US,1699734148
85,alice springs,-23.7,133.8833,25.75,57,40,4.12,AU,1699734152
86,ubari,26.5921,12.7805,22.67,24,0,2.28,LY,1699734153
87,tura,25.5198,90.2201,18.09,87,0,1.74,IN,1699733867
88,petropavlovsk-kamchatsky,53.0452,158.6483,1.33,98,75,7.0,RU,1699734155
89,atar,20.5169,-13.0499,26.42,15,46,3.52,MR,1699734156
90,woolgoolga,-30.1106,153.2007,20.93,88,11,4.94,AU,1699734157
91,goure,13.9835,10.2704,29.07,15,67,3.47,NE,1699734158
92,uturoa,-16.7333,-151.4333,27.06,82,93,5.32,PF,1699734159
93,thompson,55.7435,-97.8558,2.09,75,75,4.12,CA,1699734079
94,sabzevar,36.2126,57.6819,13.44,56,0,3.27,IR,1699734160
95,ulety,51.3572,112.4849,-14.38,96,11,1.71,RU,1699734161
96,mar del plata,-38.0023,-57.5575,24.9,68,0,5.14,AR,1699734162
97,zaragoza,41.6561,-0.8773,20.27,64,87,8.23,ES,1699734075
98,salalah,17.0151,54.0924,27.05,69,0,1.03,OM,1699734165
99,batticaloa,7.7102,81.6924,26.07,87,100,1.95,LK,1699734166
100,alpine,32.835,-116.7664,26.63,11,0,1.79,US,1699734167
101,kudahuvadhoo,2.6708,72.8944,28.0,76,72,2.95,MV,1699734168
102,talnakh,69.4865,88.3972,-6.55,95,100,3.5,RU,1699734156
103,port alfred,-33.5906,26.891,18.43,85,34,2.24,ZA,1699734170
104,vorkuta,67.5,64.0,-6.71,96,100,3.66,RU,1699734171
105,st. john's,47.5649,-52.7093,3.42,92,100,10.29,CA,1699734172
106,salinas,36.6777,-121.6555,25.0,35,0,3.6,US,1699734103
107,san antonio oeste,-40.7319,-64.9477,25.9,21,100,18.5,AR,1699734174
108,makubetsu,45.3714,141.8211,-1.77,95,99,1.34,JP,1699734175
109,ingeniero jacobacci,-41.3427,-69.5448,7.83,31,80,15.55,AR,1699733933
110,chulakkurgan,43.765,69.1814,6.3,58,5,7.49,KZ,1699734176
111,hithadhoo,-0.6,73.0833,27.21,83,28,4.8,MV,1699734177
112,qusmuryn,52.4503,64.6311,5.95,82,99,3.91,KZ,1699734178
113,upington,-28.4478,21.2561,25.21,18,38,6.17,ZA,1699734179
114,cole harbour,44.6724,-63.4751,4.96,82,87,5.66,CA,1699734180
115,greenville,35.6127,-77.3663,12.09,86,100,1.54,US,1699733794
116,aldama,22.9167,-98.0667,21.94,71,100,2.43,MX,1699734182
117,punta cardon,11.6581,-70.215,29.29,73,100,12.21,VE,1699734106
118,arraial do cabo,-22.9661,-42.0278,26.92,74,0,7.2,BR,1699734183
119,papao,-17.75,-149.55,30.82,78,67,5.59,PF,1699734184
120,atherton,53.5237,-2.4935,5.79,89,10,0.45,GB,1699734185
121,bayganin,48.6947,55.8742,3.95,74,74,5.47,KZ,1699734140
122,port-gentil,-0.7193,8.7815,25.98,94,20,2.06,GA,1699734187
123,haiku-pauwela,20.9219,-156.3051,27.01,63,40,9.26,US,1699733902
124,usogorsk,63.4106,48.6872,0.37,96,100,2.43,RU,1699734188
125,assab,13.0092,42.7394,27.65,78,28,9.8,ER,1699734190
126,mogadishu,2.0371,45.3438,27.25,79,100,5.53,SO,1699734191
127,hawaiian paradise park,19.5933,-154.9731,24.37,94,100,2.57,US,1699734192
128,nar'yan-mar,67.6713,53.087,-8.83,95,20,3.13,RU,1699734193
129,camana,-16.6228,-72.7111,19.89,88,99,3.42,PE,1699734194
130,atafu village,-8.5421,-172.5159,28.62,77,93,3.71,TK,1699734194
131,longyearbyen,78.2186,15.6401,-4.09,63,75,5.14,SJ,1699734195
132,sandomierz,50.6827,21.749,8.4,92,100,0.89,PL,1699734196
133,klyuchi,52.2667,79.1667,4.63,81,100,5.39,RU,1699734197
134,buala,-8.145,159.5921,26.52,87,100,3.52,SB,1699734198
135,whitehorse,60.7161,-135.0538,-0.55,92,75,3.6,CA,1699734198
136,san sebastian de la gomera,28.0916,-17.1133,23.54,83,0,3.09,ES,1699734199
137,yarmouth,41.7057,-70.2286,10.57,61,0,7.6,US,1699734034
138,viedma,-40.8135,-62.9967,28.71,16,64,12.07,AR,1699734201
139,bay roberts,47.5999,-53.2648,3.62,90,100,2.24,CA,1699734202
140,gorom-gorom,14.4439,-0.2361,30.94,9,39,3.52,BF,1699734203
141,utrik,11.2278,169.8474,27.63,83,100,8.27,MH,1699734204
142,ulladulla,-35.35,150.4667,15.58,80,92,1.61,AU,1699734204
143,nemuro,43.3236,145.575,1.52,71,4,5.82,JP,1699734205
144,acajutla,13.5928,-89.8275,29.29,74,36,1.69,SV,1699734206
145,corner brook,48.9667,-57.9484,2.09,90,100,3.28,CA,1699734207
146,tiksi,71.6872,128.8694,-11.37,88,100,7.28,RU,1699734208
147,zeya,53.75,127.2667,-12.51,74,100,1.85,RU,1699734208
148,ndele,8.4109,20.6473,22.8,91,99,1.42,CF,1699734209
149,lospalos,-8.5186,127.0025,20.95,90,4,0.73,TL,1699734210
150,turpan,42.9333,89.1667,6.65,31,22,1.42,CN,1699734211
151,san andres,12.5847,-81.7006,28.01,78,40,4.12,CO,1699734212
152,wailua homesteads,22.0669,-159.378,28.24,80,100,6.17,US,1699734213
153,dampit,-8.2116,112.7493,21.75,97,68,0.74,ID,1699734214
154,nizhnesortymskiy,62.4397,71.7603,-0.33,99,100,6.18,RU,1699734215
155,carnarvon,-24.8667,113.6333,20.8,80,80,6.71,AU,1699734217
156,mejit,10.2753,170.8646,27.77,81,100,7.66,MH,1699734218
157,tamanrasset,22.785,5.5228,20.95,11,0,2.57,DZ,1699734218
158,kabare,-2.4683,28.8242,17.23,99,100,1.03,CD,1699734219
159,rio grande,-32.035,-52.0986,24.06,81,49,6.45,BR,1699734220
160,nacala,-14.5428,40.6728,24.45,77,10,2.9,MZ,1699734221
161,hammerfest,70.6634,23.6821,-3.75,74,20,2.06,NO,1699734222
162,mesquite,32.7668,-96.5992,18.16,58,100,2.57,US,1699734019
163,elliot lake,46.3834,-82.6331,1.13,68,98,1.42,CA,1699734223
164,wusong,30.95,117.7833,9.13,91,100,4.94,CN,1699734224
165,mount isa,-20.7333,139.5,20.87,94,14,2.57,AU,1699734226
166,fort saskatchewan,53.7168,-113.2187,9.44,52,100,1.54,CA,1699734227
167,choyr,46.3611,108.3611,-15.81,86,4,2.02,MN,1699734169
168,flekkefjord,58.2971,6.6607,3.86,85,99,2.01,NO,1699734229
169,iwaki,37.05,140.8833,7.79,72,100,1.35,JP,1699734229
170,sandnessjoen,66.0217,12.6316,-0.71,67,0,6.84,NO,1699734230
171,anadyr,64.75,177.4833,-17.72,84,20,4.0,RU,1699734231
172,maceio,-9.6658,-35.7353,27.69,69,20,4.63,BR,1699734232
173,achacachi,-16.05,-68.6833,13.51,59,59,4.52,BO,1699734233
174,arecibo,18.4724,-66.7157,31.67,80,100,0.45,PR,1699734212
175,roding,49.1964,12.5186,3.9,89,94,3.34,DE,1699734234
176,ghat,24.9647,10.1728,23.03,16,0,3.1,LY,1699734235
177,abadeh,31.1608,52.6506,11.66,30,4,0.99,IR,1699734236
178,hailey,43.5196,-114.3153,9.39,53,0,5.14,US,1699734244
179,harper,4.375,-7.7169,25.78,87,66,2.99,LR,1699734245
180,bathsheba,13.2167,-59.5167,26.34,89,75,12.35,BB,1699734245
181,noosa heads,-26.3833,153.15,20.06,63,95,2.91,AU,1699734246
182,saudarkrokur,65.7461,-19.6394,-0.93,73,99,1.77,IS,1699734247
183,whakatane,-37.9585,176.9854,18.27,76,33,0.89,NZ,1699734248
184,touros,-5.1989,-35.4608,26.77,68,5,6.18,BR,1699734249
185,kavaratti,10.5669,72.642,28.45,76,99,1.89,IN,1699734249
186,fort st. john,56.2499,-120.8529,3.94,65,75,4.63,CA,1699734250
187,usinsk,65.9939,57.5281,-4.4,92,100,4.47,RU,1699734251
188,bohlen,51.2,12.3833,6.54,86,100,0.89,DE,1699734252
189,murmashi,68.8154,32.8115,-12.77,92,40,1.0,RU,1699734253
190,cabo san lucas,22.8909,-109.9124,30.42,58,0,2.06,MX,1699734254
191,pathein,16.7833,94.7333,24.5,88,6,2.09,MM,1699734255
192,fortuna,40.5982,-124.1573,18.85,62,0,2.06,US,1699734097
193,goundi,9.3627,17.366,24.21,80,100,1.85,TD,1699734256
194,dondaicha,21.3333,74.5667,25.4,40,14,1.22,IN,1699734257
195,weno,7.4515,151.8468,26.97,94,75,3.09,FM,1699734258
196,yanam,16.7333,82.2167,24.04,79,18,1.88,IN,1699734259
197,vilhena,-12.7406,-60.1458,33.02,37,54,2.47,BR,1699733976
198,happy valley-goose bay,53.3168,-60.3315,-1.83,64,75,1.03,CA,1699734260
199,xucheng,20.35,110.1288,24.61,87,8,4.64,CN,1699734262
200,burumburum,11.3911,8.7234,25.0,22,93,2.16,NG,1699734263
201,kuanda,56.3161,116.0806,-16.96,96,88,0.44,RU,1699734264
202,kuta,-8.7233,115.1723,26.97,83,20,2.24,ID,1699734265
203,key west,24.5557,-81.7826,30.0,73,0,5.66,US,1699734133
204,evergreen,39.6333,-105.3172,13.64,22,9,2.24,US,1699734267
205,hermanus,-34.4187,19.2345,15.72,85,33,4.66,ZA,1699734268
206,kargopol',61.5071,38.9456,2.99,99,100,1.24,RU,1699734349
207,puerto armuelles,8.2833,-82.8667,28.99,84,100,3.13,PA,1699734350
208,remire-montjoly,4.9167,-52.2667,28.43,75,7,5.38,GF,1699734290
209,port hueneme,34.1478,-119.1951,31.42,40,0,5.14,US,1699734412
210,port lincoln,-34.7333,135.8667,12.45,72,98,6.66,AU,1699734328
211,filey,54.21,-0.2892,5.99,90,40,3.73,GB,1699734299
212,pisco,-13.7,-76.2167,23.03,73,75,6.17,PE,1699734415
213,antsiranana,-12.2787,49.2917,25.47,82,47,4.97,MG,1699734415
214,alofi,-19.0595,-169.9187,22.94,94,100,6.69,NU,1699734416
215,chernyshevskiy,63.0128,112.4714,-10.86,85,100,4.11,RU,1699734417
216,midelt,32.6852,-4.7451,17.03,44,5,1.44,MA,1699734418
217,zhoushan,30.0108,122.2047,15.74,80,100,6.68,CN,1699734418
218,constantia,44.1833,28.65,10.39,77,37,7.74,RO,1699734246
219,isafjordur,66.0755,-23.124,0.89,87,100,2.38,IS,1699734238
220,lompoc,34.6391,-120.4579,29.27,30,0,3.09,US,1699734421
221,vorgashor,67.5833,63.95,-6.8,96,100,3.77,RU,1699734423
222,ebon,4.582,168.6964,27.51,78,100,4.18,MH,1699734424
223,sinop,41.7711,34.8709,16.87,51,100,6.55,TR,1699734301
224,egilsstadir,65.2653,-14.3948,-8.05,93,0,2.57,IS,1699734339
225,puntarenas,9.9763,-84.8384,28.77,75,100,0.42,CR,1699734426
226,saint-pierre,-21.3393,55.4781,22.82,83,75,3.09,RE,1699734428
227,mananara,-16.1667,49.7667,23.82,90,92,2.76,MG,1699734429
228,mungwi,-10.1732,31.3694,22.5,58,95,2.45,ZM,1699734430
229,island harbour,50.724,-1.2758,9.45,87,100,3.58,GB,1699734228
230,labrador city,52.9463,-66.9114,-5.05,74,100,1.54,CA,1699734431
231,san-pedro,4.7485,-6.6363,25.65,89,33,2.6,CI,1699734322
232,nyurba,63.2842,118.3319,-9.79,89,73,3.61,RU,1699734433
233,susuman,62.7833,148.1667,-33.28,100,82,0.08,RU,1699734434
234,guerrero negro,27.9769,-114.0611,24.65,23,0,3.54,MX,1699734434
235,minas de marcona,-15.2119,-75.1103,17.71,76,64,6.73,PE,1699734436
236,kiama,-34.6833,150.8667,19.1,78,100,1.34,AU,1699734437
237,kone,-21.0595,164.8658,22.28,69,33,2.24,NC,1699734438
238,bandrele,-12.9067,45.1914,26.86,83,0,1.54,YT,1699734440
239,nova sintra,14.8667,-24.7167,22.64,71,23,5.5,CV,1699734440
240,zhezqazghan,47.7833,67.7667,4.46,89,99,6.46,KZ,1699734441
241,galesong,-5.3166,119.3661,25.01,77,62,2.78,ID,1699734442
242,praia,14.9215,-23.5087,25.3,73,20,6.69,CV,1699734442
243,solvang,34.5958,-120.1377,26.72,10,0,2.57,US,1699734443
244,jiuquan,39.7432,98.5174,-2.36,35,100,1.98,CN,1699734444
245,mandan,46.8267,-100.8896,6.32,67,0,5.66,US,1699734446
246,jiaojiang,28.6803,121.4428,15.0,93,100,3.09,CN,1699734448
247,horsham,51.064,-0.3272,6.68,97,0,1.03,GB,1699734449
248,keflavik,64.0049,-22.5624,4.24,75,75,5.66,IS,1699734450
249,laguna,38.421,-121.4238,22.23,41,0,2.57,US,1699734451
250,iwanai,42.9744,140.5089,0.96,76,100,5.83,JP,1699734452
251,kanniyakumari,8.0833,77.5667,25.2,87,100,9.87,IN,1699734453
252,tolanaro,-25.0319,46.9987,22.04,68,20,5.14,MG,1699734454
253,yakeshi,49.2833,120.7333,-25.46,100,95,1.57,CN,1699734455
254,saldanha,-33.0117,17.9442,16.03,85,0,3.73,ZA,1699734455
255,letlhakane,-21.4167,25.5833,28.45,28,49,0.35,BW,1699734456
256,lata,40.1629,-8.3327,17.82,96,94,2.7,PT,1699734238
257,argo,37.6333,22.7333,17.66,72,99,2.15,GR,1699734457
258,guiuan,11.0333,125.7247,28.3,76,16,4.11,PH,1699734458
259,port augusta,-32.5,137.7667,14.95,61,52,7.16,AU,1699734459
260,chany,55.3121,76.7647,1.89,93,100,3.01,RU,1699734460
261,sakakah,29.9697,40.2064,21.76,25,65,3.63,SA,1699734461
262,mugia,43.1041,-9.2179,18.42,92,89,9.81,ES,1699734461
263,quellon,-43.1167,-73.6167,7.25,79,96,7.75,CL,1699734462
264,nuuk,64.1835,-51.7216,-5.66,79,20,3.6,GL,1699734463
265,brownwood,31.7093,-98.9912,20.0,67,100,2.06,US,1699734464
266,qaqortoq,60.7167,-46.0333,-3.22,73,44,3.92,GL,1699734464
267,la paz,-16.5,-68.15,14.99,54,75,7.2,BO,1699734465
268,sola,-13.8833,167.55,26.24,80,98,12.87,VU,1699734466
269,bokoro,12.3807,17.0568,30.17,19,7,4.35,TD,1699734467
270,sungai penuh,-2.0833,101.3833,18.72,97,94,0.44,ID,1699734468
271,parkes,-33.1333,148.1833,24.08,51,32,1.55,AU,1699734468
272,zliten,32.4674,14.5687,21.86,73,0,3.6,LY,1699734469
273,padang,-0.9492,100.3543,23.03,90,33,1.13,ID,1699734472
274,nadym,65.5333,72.5167,-0.01,99,100,5.35,RU,1699734472
275,kenai,60.5544,-151.2583,-3.25,98,40,2.06,US,1699734473
276,birobidzhan,48.8,132.95,-15.1,93,12,2.38,RU,1699734474
277,es castell,39.8795,4.2854,16.38,94,0,2.57,ES,1699734475
278,arkalyk,50.2486,66.9114,3.75,88,68,5.39,KZ,1699734476
279,pasaje,-3.3333,-79.8167,27.84,62,64,3.34,EC,1699734476
280,kristiansund,63.1115,7.732,2.36,69,75,3.6,NO,1699734298
281,saveh,35.0213,50.3566,17.27,35,100,1.61,IR,1699734478
282,ilulissat,69.2167,-51.1,-7.99,45,100,5.14,GL,1699734479
283,sogamoso,5.7143,-72.9339,17.61,77,90,2.1,CO,1699734479
284,celestun,20.8667,-90.4,28.01,80,84,4.49,MX,1699734481
285,sao joao da barra,-21.6403,-41.0511,28.05,84,0,7.8,BR,1699734415
286,brokopondo,4.75,-55.1667,31.05,57,73,1.75,SR,1699734483
287,ketchikan,55.3422,-131.6461,7.26,87,75,3.09,US,1699734484
288,prado,-17.3411,-39.2208,26.46,71,2,7.02,BR,1699734485
289,harstad,68.799,16.5293,-0.47,78,10,6.26,NO,1699734485
290,kirgiz-miyaki,53.6324,54.7979,3.14,86,100,4.01,RU,1699734486
291,dhrangadhra,22.9833,71.4667,22.9,30,56,3.13,IN,1699734487
292,tsiombe,-25.3,45.4833,20.91,69,0,7.53,MG,1699734488
293,polyarnyy,69.1989,33.4478,-5.22,87,91,2.74,RU,1699734489
294,roma,43.2128,-75.4557,4.65,62,0,5.14,US,1699734489
295,champerico,14.3,-91.9167,35.3,74,15,2.65,GT,1699734490
296,mount pearl,47.5166,-52.7813,2.96,92,100,10.29,CA,1699734491
297,karratha,-20.7377,116.8463,23.12,61,7,5.73,AU,1699734492
298,turaif,31.6725,38.6637,19.14,32,0,2.06,SA,1699734493
299,aitape,-3.1374,142.3475,25.42,89,95,2.15,PG,1699734493
300,bahia de kino,28.8333,-111.9333,28.84,27,0,3.43,MX,1699734495
301,east london,-33.0153,27.9116,18.86,76,31,6.39,ZA,1699734352
302,markivka,49.5229,39.5705,7.98,58,100,9.1,UA,1699734496
303,port hedland,-20.3167,118.5667,24.03,83,2,3.6,AU,1699734497
304,terbuny,52.1389,38.2789,5.22,78,100,7.77,RU,1699734498
305,inyonga,-6.7167,32.0667,23.85,50,95,0.72,TZ,1699734499
306,bundu,23.1833,85.5833,20.12,61,0,1.22,IN,1699734500
307,broken hill,-31.95,141.4333,16.69,30,31,7.21,AU,1699734501
308,maragogi,-9.0122,-35.2225,26.36,66,53,5.0,BR,1699734501
309,ust-nera,64.5667,143.2,-33.53,98,72,1.75,RU,1699734502
310,muisne,0.6,-80.0333,26.07,79,99,4.96,EC,1699734503
311,iquitos,-3.7481,-73.2472,32.02,62,40,1.03,PE,1699734504
312,nuku'alofa,-21.1333,-175.2,23.19,78,100,6.69,TO,1699734319
313,saynshand,44.8824,110.1163,-15.17,82,4,2.39,MN,1699734506
314,santa ines,-3.6667,-45.38,35.87,33,59,3.29,BR,1699734507
315,cartagena,10.3997,-75.5144,31.79,74,40,3.6,CO,1699734202
316,berezovo,63.9381,65.0419,-1.01,91,100,1.99,RU,1699734511
317,hami,42.8,93.45,4.33,26,100,3.75,CN,1699734511
318,trinidad,-14.8333,-64.9,38.99,35,40,6.69,BO,1699734512
319,caconda,-13.7333,15.0667,20.79,57,99,0.58,AO,1699734513
320,princeville,45.7668,-61.2985,4.62,92,100,1.03,CA,1699733979
321,sisimiut,66.9395,-53.6735,-6.2,92,100,5.3,GL,1699734330
322,mossel bay,-34.1831,22.146,16.96,75,20,5.39,ZA,1699734515
323,jayapura,-2.5333,140.7,25.66,92,100,2.26,ID,1699734516
324,ancud,-41.8697,-73.8203,8.03,68,61,9.2,CL,1699734245
325,mili,6.0815,171.735,28.7,79,100,8.37,MH,1699734520
326,illizi,26.4833,8.4667,20.89,25,0,2.86,DZ,1699734521
327,barra de santo antonio,-9.4047,-35.5072,27.6,68,76,4.94,BR,1699734521
328,oak grove,45.4168,-122.6401,12.83,88,100,5.14,US,1699734522
329,al fqih ben calah,32.5009,-6.6906,21.41,44,0,3.29,MA,1699734523
330,dalandzadgad,43.5708,104.425,-6.19,28,0,3.52,MN,1699734524
331,jatai,-17.8814,-51.7144,37.67,15,86,3.75,BR,1699734525
332,carloforte,39.145,8.3058,18.98,81,83,6.64,IT,1699734526
333,khovd,48.0056,91.6419,-5.19,97,100,0.82,MN,1699734527
334,tofol,5.3248,163.0078,25.88,94,100,1.03,FM,1699734527
335,puerto morazan,12.8504,-87.1717,32.43,59,51,1.92,NI,1699734528
336,kerikeri,-35.2268,173.9474,15.3,60,5,1.5,NZ,1699734529
337,dolores,-36.3132,-57.6792,27.71,33,0,5.69,AR,1699734530
338,okha,53.5739,142.9478,-5.82,85,100,7.63,RU,1699734530
339,ivdel',60.6911,60.4206,2.33,91,100,1.34,RU,1699734532
340,kodinsk,58.6881,99.1844,-14.2,97,14,1.16,RU,1699734532
341,tralee,52.2704,-9.7026,7.86,90,100,7.33,IE,1699734533
342,konarka,19.9,86.1167,21.22,70,7,2.07,IN,1699734534
343,enewetak,11.3474,162.3373,28.22,76,79,7.1,MH,1699734311
344,fort bragg,35.139,-79.006,12.12,86,100,2.06,US,1699734535
345,chonchi,-42.6128,-73.8092,8.4,93,96,4.78,CL,1699734536
346,newman,37.3138,-121.0208,20.69,42,100,0.45,US,1699734448
347,mil'kovo,55.6078,37.7956,4.67,86,100,4.16,RU,1699734537
348,puerto leguizamo,-0.1934,-74.7819,27.68,90,89,1.09,CO,1699734274
349,rawah,34.4816,41.9093,21.32,36,100,3.41,IQ,1699734539
350,itoman,26.1247,127.6694,20.22,94,100,7.2,JP,1699734540
351,afaahiti,-17.75,-149.2833,29.93,81,87,6.45,PF,1699734359
352,taoudenni,22.6783,-3.9836,27.94,11,1,2.61,ML,1699734292
353,savelugu,9.6244,-0.8253,32.34,36,96,0.45,GH,1699734542
354,bir el ater,34.7449,8.0602,13.25,46,18,2.11,DZ,1699734543
355,bliss corner,41.6118,-70.9384,12.13,49,0,3.09,US,1699734544
356,antonina,-25.4286,-48.7119,38.82,76,97,0.78,BR,1699734545
357,boende,-0.2167,20.8667,22.26,99,100,1.62,CD,1699734546
358,visakhapatnam,17.69,83.2093,23.78,74,10,1.99,IN,1699734547
359,gizo,-8.103,156.8419,27.52,73,100,7.71,SB,1699734548
360,kasempa,-13.4584,25.8338,23.74,52,100,1.44,ZM,1699734548
361,rawson,-43.3002,-65.1023,19.16,45,95,7.2,AR,1699734347
362,waingapu,-9.6567,120.2641,26.94,78,100,0.61,ID,1699734550
363,iskateley,67.6803,53.1512,-8.88,95,21,3.13,RU,1699734324
364,aibak,36.2647,68.0155,10.87,49,33,0.59,AF,1699734552
365,katsuura,35.1333,140.3,14.45,81,100,6.84,JP,1699734552
366,kavieng,-2.5744,150.7967,27.87,76,100,3.88,PG,1699734553
367,naze,28.3667,129.4833,15.51,87,98,6.44,JP,1699734554
368,teguise,29.0605,-13.564,19.12,78,20,5.14,ES,1699734555
369,mirny,62.5353,113.9611,-9.87,61,100,7.15,RU,1699734556
370,colonia,50.9333,6.95,7.16,87,20,1.54,DE,1699734258
371,n'zeto,-7.2312,12.8666,25.03,86,98,1.21,AO,1699734557
372,sao desiderio,-12.3633,-44.9733,34.44,22,86,3.54,BR,1699734558
373,blagoveshchensk,50.2667,127.5333,-15.66,78,0,3.0,RU,1699734559
374,tazovsky,67.4667,78.7,-4.15,97,100,4.89,RU,1699734560
375,port blair,11.6667,92.75,28.02,83,40,1.03,IN,1699734561
376,pangody,65.85,74.4859,-0.57,98,100,6.37,RU,1699734562
377,souillac,-20.5167,57.5167,23.21,88,75,1.54,MU,1699734562
378,soio,-6.1349,12.3689,26.02,83,88,1.85,AO,1699734563
379,guarapari,-20.6667,-40.4975,27.16,78,5,6.32,BR,1699734564
380,thunder bay,48.4001,-89.3168,2.99,70,100,3.09,CA,1699734424
381,cananea,30.95,-110.3,16.9,28,0,2.91,MX,1699734566
382,irymple,-34.25,142.1667,11.72,62,10,0.45,AU,1699734568
383,mungaoli,24.4167,78.1,18.31,58,0,2.18,IN,1699734569
384,san antonio de pale,-1.4014,5.6325,26.31,83,100,4.82,GQ,1699734570
385,galveston,29.3669,-94.9669,16.19,89,100,4.12,US,1699734571
386,opuwo,-18.0607,13.84,26.26,39,100,1.82,NA,1699734572
387,bonthe,7.5264,-12.505,26.17,83,100,3.21,SL,1699734573
388,kapuskasing,49.4169,-82.4331,-0.95,86,100,3.09,CA,1699734305
389,palu,-0.8917,119.8707,24.21,95,90,1.39,ID,1699734574
390,magadan,59.5667,150.8,-18.47,81,1,4.45,RU,1699734575
391,south venice,27.0531,-82.4243,32.37,70,3,2.24,US,1699734577
392,gadzhiyevo,69.2551,33.3362,-5.64,89,91,2.9,RU,1699734578
393,kirensk,57.7853,108.1119,-12.8,92,50,1.79,RU,1699734305
394,stornoway,58.2093,-6.3865,6.98,84,100,2.06,GB,1699734579
395,suva,-18.1416,178.4415,24.71,88,75,3.6,FJ,1699734580
396,george town,5.4112,100.3354,27.75,95,20,1.03,MY,1699734381
397,jamaame,0.0697,42.745,26.29,82,60,2.71,SO,1699734582
398,springbok,-29.6643,17.8865,12.67,67,6,2.82,ZA,1699734337
399,turkmenbasy,40.0222,52.9552,15.43,41,0,6.17,TM,1699734584
400,hobyo,5.3505,48.5268,27.04,81,100,3.85,SO,1699734585
401,bichura,50.5881,107.6022,-12.17,88,5,1.33,RU,1699734586
402,altai,46.3722,96.2583,-10.67,56,100,1.34,MN,1699734322
403,saint-philippe,-21.3585,55.7679,22.77,84,26,4.41,RE,1699734587
404,coquimbo,-29.9533,-71.3436,18.85,63,20,6.69,CL,1699734588
405,vadso,70.0744,29.7487,-1.91,80,75,6.17,NO,1699734588
406,santa elena de uairen,4.6167,-61.1333,26.77,56,80,2.14,VE,1699734589
407,santa ana de yacuma,-13.75,-65.4333,35.97,41,75,6.17,BO,1699734590
408,pohang,36.0322,129.365,2.85,57,1,5.69,KR,1699734591
409,chegdomyn,51.1167,133.0167,-16.77,99,49,0.37,RU,1699734592
410,tobol'sk,58.2,68.2667,2.56,72,100,2.68,RU,1699734593
411,sao gabriel da cachoeira,-0.1303,-67.0892,29.49,72,99,0.21,BR,1699734594
412,kombissiri,12.0656,-1.3375,29.99,20,64,3.24,BF,1699734595
413,cody,44.5263,-109.0565,10.9,38,75,9.39,US,1699734373
414,san patricio,28.017,-97.5169,15.47,89,100,3.22,US,1699734596
415,ta`u,-14.2336,-169.5144,27.54,80,54,4.96,AS,1699734597
416,liman,48.9884,37.8023,8.7,57,100,7.09,UA,1699734597
417,tyuratam,45.6507,63.3156,7.23,67,94,8.13,KZ,1699734598
418,vila velha,-20.3297,-40.2925,27.97,82,0,6.17,BR,1699734599
419,ciudad sabinas hidalgo,26.5,-100.1667,14.68,83,100,2.08,MX,1699734600
420,toliara,-23.35,43.6667,23.63,56,0,4.49,MG,1699734601
421,gobabis,-22.45,18.9667,25.2,36,100,5.97,NA,1699734602
422,badger,64.8,-147.5333,-9.07,83,100,1.54,US,1699734604
423,derzhavinsk,51.1,66.3167,4.83,86,93,4.8,KZ,1699734606
424,atamanovka,51.93,113.63,-12.76,98,43,1.26,RU,1699734609
425,serhetabat,35.2799,62.3438,9.28,67,0,1.85,TM,1699734610
426,darovskoy,58.77,47.9564,-0.09,97,100,2.05,RU,1699734610
427,kuqa,41.7278,82.9364,6.23,52,54,1.26,CN,1699734320
428,ciudad bolivar,8.1222,-63.5497,34.63,37,61,2.43,VE,1699734612
429,qaryat suluq,31.6682,20.2521,20.17,53,3,1.8,LY,1699734614
430,panacan,9.2463,118.4082,26.4,81,38,2.33,PH,1699734615
431,baturaja,-4.1333,104.1667,23.73,94,85,0.55,ID,1699734617
432,tinajo,29.0788,-13.7081,20.49,78,20,5.14,ES,1699734618
433,linxia chengguanzhen,35.6003,103.2064,-2.19,49,55,1.17,CN,1699734619
434,arenapolis,-14.4503,-56.8461,34.07,36,96,2.78,BR,1699734620
435,new badah,27.3417,68.0319,22.12,28,3,0.89,PK,1699734621
436,samaniego,1.3385,-77.5957,25.84,91,100,2.01,CO,1699734622
437,santander,43.4647,-3.8044,18.03,94,75,3.13,ES,1699734623
438,siyabuswa,-25.1132,29.0445,25.81,24,20,2.35,ZA,1699734624
439,nguigmi,14.2495,13.1092,28.72,24,100,4.65,NE,1699734625
440,rongelap,11.1635,166.8941,27.35,83,100,7.6,MH,1699734626
441,santiago de cao,-7.9589,-79.2392,21.07,78,20,5.66,PE,1699734627
442,luwingu,-10.2621,29.9271,21.24,71,100,1.05,ZM,1699734628
443,norfolk,42.1668,-71.2495,10.43,48,3,0.89,US,1699734450
444,aktau,43.65,51.2,3.32,64,19,5.5,KZ,1699734630
445,yuzhno-kurilsk,44.0306,145.8556,2.43,80,43,4.85,RU,1699734631
446,yatou,37.15,122.3833,2.43,78,66,3.78,CN,1699734632
447,turochak,52.2576,87.1224,-0.22,97,100,0.99,RU,1699734633
448,beruniy,41.6911,60.7525,5.98,70,0,2.06,UZ,1699734635
449,mul,20.0667,79.6667,21.05,63,41,1.79,IN,1699734639
450,novofedorivka,46.1713,32.3178,14.83,86,79,8.89,UA,1699734640
451,turtas,58.9417,69.1325,-0.16,99,100,1.62,RU,1699734641
452,san luis de la loma,17.2706,-100.8939,29.66,71,14,2.27,MX,1699734642
453,dryden,49.7833,-92.7503,-1.84,80,100,4.12,CA,1699734642
454,gaalkacyo,6.7697,47.4308,25.14,82,100,4.71,SO,1699734644
455,i-n-salah,27.1935,2.4607,23.75,24,0,4.88,DZ,1699734645
456,isangel,-19.55,169.2667,24.12,67,12,7.24,VU,1699734646
457,omutinskiy,56.4745,67.6709,0.38,96,100,1.85,RU,1699734647
458,khandud,36.9513,72.318,-2.96,55,85,0.82,AF,1699734647
459,forster,-32.1667,152.5167,20.77,91,18,3.17,AU,1699734648
460,adrar,20.5022,-10.0711,23.29,16,3,4.47,MR,1699734649
461,voi,-3.3945,38.563,23.05,88,100,2.78,KE,1699734650
462,arica,-18.475,-70.3042,24.75,68,0,6.17,CL,1699734651
463,rangpur,25.75,89.25,20.6,71,0,2.12,BD,1699734652
464,mangrol,21.1167,70.1167,26.03,33,27,5.45,IN,1699734652
465,mhamid,29.82,-5.72,23.57,23,5,2.39,MA,1699734653
466,vila franca do campo,37.7167,-25.4333,21.05,99,9,2.84,PT,1699734654
467,faya-largeau,17.9257,19.1043,27.39,23,96,4.48,TD,1699734655
468,kurtamysh,54.9103,64.4319,4.75,72,99,1.79,RU,1699734656
469,puerto aysen,-45.4,-72.7,5.9,99,100,2.63,CL,1699734657
470,acaponeta,22.4964,-105.3594,33.07,45,45,2.36,MX,1699734658
471,kidal,18.4411,1.4078,28.26,8,0,4.79,ML,1699734375
472,polyarnyye zori,67.3661,32.4981,-7.23,97,61,1.51,RU,1699734661
473,valdosta,30.8327,-83.2785,21.95,83,100,5.66,US,1699734471
474,paka,4.6374,103.4368,23.96,100,77,0.0,MY,1699734663
475,lepsy,46.235,78.9456,7.08,61,100,1.95,KZ,1699734664
476,fisterra,42.9049,-9.2629,18.34,91,85,8.56,ES,1699734664
477,holualoa,19.6228,-155.9522,25.91,79,40,3.6,US,1699734665
478,notse,6.95,1.1667,25.09,90,49,2.23,TG,1699734666
479,caleta de carquin,-11.0925,-77.6267,21.89,74,25,6.06,PE,1699734667
480,novoagansk,61.9449,76.6625,0.47,98,100,3.68,RU,1699734668
481,crane,31.3974,-102.3501,14.28,68,93,2.75,US,1699734669
482,noumea,-22.2763,166.4572,23.33,99,22,6.38,NC,1699734532
483,angaur state,6.906,134.13,29.08,73,100,6.77,PW,1699734670
484,aripuana,-9.1667,-60.6333,33.04,45,100,1.42,BR,1699734671
485,mtimbira,-8.7833,36.35,24.42,80,99,1.79,TZ,1699734672
486,egersund,58.4513,5.9997,4.49,80,93,2.23,NO,1699734673
487,mendota,36.7536,-120.3816,19.15,28,82,2.51,US,1699734674
488,mundri,-6.9558,111.71,25.29,86,26,2.02,ID,1699734675
489,cockburn town,21.4612,-71.1419,28.37,73,90,9.63,TC,1699734676
490,elamanchili,17.55,82.8667,21.69,78,41,1.77,IN,1699734677
491,atasu,48.6814,71.6433,6.73,67,97,7.93,KZ,1699734535
492,hadibu,12.65,54.0333,26.59,85,100,6.05,YE,1699734678
493,shimoda,34.6667,138.95,10.61,87,100,5.82,JP,1699734679
494,eyl,7.9803,49.8164,26.71,80,100,6.33,SO,1699734680
495,tefe,-3.3542,-64.7114,34.06,52,40,1.03,BR,1699734681
496,san rafael del yuma,18.4299,-68.6739,30.11,80,99,3.86,DO,1699734685
497,greymouth,-42.4667,171.2,13.01,77,100,0.59,NZ,1699734464
498,laojunmiao,39.8333,97.7333,-0.67,38,100,0.35,CN,1699734687
499,black point,-34.6187,137.8972,14.32,72,99,7.52,AU,1699734688
500,callao,-12.0667,-77.15,23.16,60,20,7.2,PE,1699734689
501,malango,-2.9627,119.9001,19.46,97,99,0.92,ID,1699734690
502,brisas de zicatela,15.8369,-97.0419,30.29,48,75,4.12,MX,1699734691
503,acambay,19.9558,-99.8417,17.87,62,93,1.98,MX,1699734692
504,port de pollenca,39.9075,3.0814,19.07,76,15,4.22,ES,1699734693
505,shenjiamen,29.9576,122.298,15.62,78,100,7.51,CN,1699734694
506,waimea,20.0231,-155.6717,21.67,90,12,2.68,US,1699734694
507,tazacorte,28.629,-17.9293,21.75,91,75,4.63,ES,1699734695
508,marsh harbour,26.5412,-77.0636,26.88,73,20,5.61,BS,1699734696
509,piedmont,37.8244,-122.2316,22.99,43,22,3.13,US,1699734697
510,hurricane,37.1753,-113.2899,21.19,16,5,2.24,US,1699734599
511,nishinoomote,30.7333,131.0,18.81,70,100,10.34,JP,1699734698
512,loch garman,52.3342,-6.4575,10.68,97,100,8.49,IE,1699734699
513,hacienda huancane,-15.8222,-70.8856,8.46,65,88,7.61,PE,1699734701
514,daru,-9.0763,143.2092,25.42,76,100,4.21,PG,1699734701
515,ojinaga,29.5667,-104.4167,14.53,77,100,3.6,MX,1699734702
516,taro,-8.3862,115.28,23.0,96,42,0.16,ID,1699734703
517,yemva,62.59,50.8594,-0.58,96,99,2.98,RU,1699734704
518,urangan,-25.3,152.9,22.21,67,8,3.86,AU,1699734705
519,roleystone,-32.1167,116.0667,14.75,69,100,8.75,AU,1699734706
520,alice,27.7523,-98.0697,14.85,100,100,5.14,US,1699734707
521,villa gesell,-37.2639,-56.973,21.14,62,13,7.47,AR,1699734417
522,kununurra,-15.7667,128.7333,22.99,100,52,2.06,AU,1699734709
523,mitu,1.1983,-70.1733,29.32,71,71,1.11,CO,1699734480
524,mandalgovi,45.7625,106.2708,-9.69,40,0,3.46,MN,1699734711
525,plastun,44.7561,136.2939,-7.77,64,1,3.0,RU,1699734711
526,tinogasta,-28.0632,-67.5649,37.65,3,10,10.95,AR,1699734712
527,pacific grove,36.6177,-121.9166,24.1,45,0,3.6,US,1699734713
528,cova figueira,14.8905,-24.2934,22.81,72,5,4.59,CV,1699734713
529,duba,27.3513,35.6901,28.92,50,96,0.7,SA,1699734714
530,meadow lakes,61.6247,-149.6011,-1.69,96,75,0.0,US,1699734715
531,lycksele,64.5954,18.6735,-6.98,93,100,1.54,SE,1699734716
532,saurimo,-9.6608,20.3916,18.01,92,80,1.88,AO,1699734717
533,kralendijk,12.15,-68.2667,29.99,79,75,7.72,BQ,1699734717
534,tshikapa,-6.4167,20.8,22.0,97,100,1.52,CD,1699734718
535,la charite-sur-loire,47.1833,3.0167,7.15,90,100,2.78,FR,1699734719
536,smithers,54.7804,-127.1743,4.18,81,75,1.54,CA,1699734719
537,loughrea,53.1969,-8.5669,5.32,91,98,5.62,IE,1699734720
538,coahuayana de hidalgo,18.7,-103.6583,31.22,61,36,2.37,MX,1699734721
539,namibe,-15.1961,12.1522,20.97,78,73,2.16,AO,1699734721
540,neiafu,-18.65,-173.9833,24.38,88,100,5.66,TO,1699734722
541,kem',64.9555,34.5793,-0.02,83,83,4.43,RU,1699734723
542,verkhnevilyuysk,63.4453,120.3167,-9.56,91,64,4.23,RU,1699734724
543,hsinchu,24.8036,120.9686,23.81,88,63,2.68,TW,1699734725
544,las lomitas,-24.7096,-60.593,45.16,17,79,5.67,AR,1699734726
545,labytnangi,66.6572,66.4183,-12.47,98,62,2.06,RU,1699734727
546,saedinenie,42.2667,24.55,8.99,66,40,2.06,BG,1699734728
547,kingston,17.997,-76.7936,31.8,69,40,10.29,JM,1699734258
548,mamfe,5.754,9.3123,24.51,94,100,0.62,CM,1699734730
549,mumbwa,-14.9783,27.0619,24.11,45,50,5.13,ZM,1699734731
550,san pascual,13.7975,121.0342,24.65,91,100,2.81,PH,1699734732
551,maintirano,-18.0667,44.0167,25.85,74,46,3.8,MG,1699734734
552,aldinga beach,-35.2793,138.4604,13.44,72,90,5.46,AU,1699734734
553,progreso,21.2833,-89.6667,30.62,83,100,5.74,MX,1699734665
554,walvis bay,-22.9575,14.5053,16.17,80,100,4.64,NA,1699734736
555,langgons,50.5,8.6667,7.42,92,12,2.33,DE,1699734737
556,tateyama,34.9833,139.8667,11.72,85,100,6.89,JP,1699734738
557,balkanabat,39.5108,54.3671,14.08,32,6,4.84,TM,1699734739
558,port saint john's,-31.6229,29.5448,19.78,87,98,6.41,ZA,1699734740
559,bereznik,62.8551,42.7072,1.22,99,100,1.36,RU,1699734741
560,barbastro,42.0356,0.1269,14.3,89,73,0.99,ES,1699734742
561,izluchinsk,60.9794,76.9242,0.0,98,100,2.8,RU,1699734742
562,port douglas,-16.4833,145.4667,24.03,75,39,4.72,AU,1699734743
563,flin flon,54.7682,-101.865,2.91,70,0,6.17,CA,1699734744
564,dudinka,69.4058,86.1778,-6.32,96,100,4.02,RU,1699734745
565,cestos city,5.46,-9.5828,26.12,85,27,1.69,LR,1699734746
566,salekhard,66.53,66.6019,-12.14,99,88,2.2,RU,1699734747
567,altamira,-3.2033,-52.2064,27.52,68,82,1.8,BR,1699734748
568,kindu,-2.95,25.95,21.48,94,100,1.25,CD,1699734749
569,rudsar,37.1376,50.288,17.99,83,99,3.0,IR,1699734749
570,shubarshi,48.5872,57.1869,4.56,76,100,6.44,KZ,1699734750
571,sundargarh,22.1167,84.0333,20.17,60,0,1.63,IN,1699734751
572,cangzhou,38.3167,116.8667,-1.35,42,0,2.73,CN,1699734752
573,petukhovo,55.0692,67.9019,2.13,92,98,2.79,RU,1699734754
574,berezovyy,51.6667,135.7,-10.72,58,8,2.39,RU,1699734755
575,yeppoon,-23.1333,150.7333,20.88,67,87,4.94,AU,1699734756
576,sesto fiorentino,43.8345,11.1952,12.94,77,20,1.03,IT,1699734756
577,athens,37.9795,23.7162,20.21,62,20,5.36,GR,1699734758
578,belmonte,-15.8631,-38.8828,25.71,76,0,5.79,BR,1699734759
579,la chamba,45.7556,3.7573,2.51,75,100,1.83,FR,1699734760
580,bubaque,11.2833,-15.8333,28.66,62,100,3.58,GW,1699734760
581,borogontsy,62.6683,131.1683,-20.81,97,100,1.47,RU,1699734761
582,philadelphia,39.9523,-75.1638,14.14,47,75,5.14,US,1699734542
583,meiganga,6.5167,14.3,21.95,73,88,1.74,CM,1699734762
584,shahr-e babak,30.1165,55.1186,13.67,23,100,1.82,IR,1699734763
585,nadi,-17.8,177.4167,27.0,69,75,4.12,FJ,1699734764
586,shilin,24.8188,103.3324,11.43,87,4,0.55,CN,1699734765
587,pechora,65.1472,57.2244,-4.52,97,98,1.79,RU,1699734766
588,alaghsas,17.0187,8.0168,26.82,15,44,4.63,NE,1699734766
589,alta,69.9689,23.2717,-4.41,85,40,2.57,NO,1699734558
590,lianshan,40.7643,120.8533,-3.85,49,8,3.02,CN,1699734768
591,orkney,-26.9802,26.6727,23.41,47,100,4.92,ZA,1699734769
592,lautoka,-17.6167,177.4667,26.92,69,75,4.12,FJ,1699734770
593,praia da vitoria,38.7333,-27.0667,20.14,77,20,5.19,PT,1699734770
