City_ID,City,Lat,Lng,Max Temp,Humidity,Cloudiness,Wind Speed,Country,Date
0,invercargill,-46.4,168.35,292.09,34,0,2.28,NZ,1699668616
1,waitangi,-43.9535,-176.5597,285.27,74,82,1.34,NZ,1699668723
2,usogorsk,63.4106,48.6872,273.52,96,33,2.81,RU,1699668724
3,puerto natales,-51.7236,-72.4875,277.93,96,100,2.82,CL,1699668274
4,ushuaia,-54.8,-68.3,277.96,87,100,5.14,AR,1699668377
5,blackmans bay,-43.0167,147.3167,290.78,66,60,1.34,AU,1699668727
6,meadow lake,34.8014,-106.5436,279.64,76,26,1.76,US,1699668728
7,sarikei,2.1167,111.5167,296.52,99,100,1.2,MY,1699668729
8,afaahiti,-17.75,-149.2833,302.08,84,100,4.85,PF,1699668730
9,grytviken,-54.2811,-36.5092,275.15,85,53,5.77,GS,1699668732
10,nadi,-17.8,177.4167,304.15,51,75,7.72,FJ,1699668541
11,vilhena,-12.7406,-60.1458,297.15,70,36,1.59,BR,1699668733
12,petropavlovsk-kamchatsky,53.0452,158.6483,273.48,98,75,2.0,RU,1699668735
13,qurayyat,31.3318,37.3428,287.25,67,0,3.09,SA,1699668735
14,mormugao,15.4,73.8,299.84,71,88,2.82,IN,1699668736
15,punta arenas,-53.15,-70.9167,280.99,75,100,1.68,CL,1699668737
16,port mathurin,-19.6833,63.4167,298.07,79,10,4.82,MU,1699668738
17,crane,31.3974,-102.3501,285.01,56,100,3.97,US,1699668738
18,edinburgh of the seven seas,-37.0676,-12.3116,288.27,91,100,11.44,SH,1699668739
19,iqaluit,63.7506,-68.5145,267.0,79,100,5.66,CA,1699668740
20,okha,53.5739,142.9478,269.62,69,100,7.32,RU,1699668740
21,maragogi,-9.0122,-35.2225,297.61,77,24,3.38,BR,1699668741
22,apolinario saravia,-24.4328,-63.9954,302.14,50,59,1.83,AR,1699668742
23,bilibino,68.0546,166.4372,245.56,100,98,1.19,RU,1699668743
24,utrik,11.2278,169.8474,300.73,83,100,9.47,MH,1699668744
25,pisco,-13.7,-76.2167,291.18,94,0,5.14,PE,1699668745
26,kailua-kona,19.6406,-155.9956,301.13,80,100,3.09,US,1699668719
27,adamstown,-25.066,-130.1015,295.97,80,1,4.55,PN,1699668747
28,iskateley,67.6803,53.1512,264.27,93,96,3.13,RU,1699668748
29,balkanabat,39.5108,54.3671,286.29,61,100,1.16,TM,1699668749
30,ponta delgada,37.7333,-25.6667,295.48,94,75,8.75,PT,1699668750
31,rio grande,-32.035,-52.0986,291.45,89,91,9.42,BR,1699668626
32,olonkinbyen,70.9221,-8.7187,274.09,81,100,3.31,SJ,1699668751
33,port elizabeth,-33.918,25.5701,292.31,83,0,12.86,ZA,1699668752
34,lanzhou,36.0564,103.7922,276.74,42,27,2.58,CN,1699668579
35,kununurra,-15.7667,128.7333,306.14,58,11,2.57,AU,1699668499
36,puerto ayora,-0.7393,-90.3518,297.34,92,30,5.36,EC,1699668754
37,bredasdorp,-34.5322,20.0403,289.86,74,100,2.93,ZA,1699668755
38,vorgashor,67.5833,63.95,258.15,100,97,2.62,RU,1699668756
39,ust'-talovka,50.5493,81.85,272.94,92,77,2.28,KZ,1699668757
40,kayangel,8.0823,134.7173,302.15,77,98,6.06,PW,1699668758
41,bethel,41.3712,-73.414,281.23,73,5,2.25,US,1699668759
42,port-aux-francais,-49.35,70.2167,275.92,92,100,15.47,TF,1699668759
43,grabo,57.8363,12.2995,278.97,94,100,1.54,SE,1699668760
44,misliyah,17.4599,42.5572,301.42,57,97,1.31,SA,1699668761
45,udachny,66.4167,112.4,266.18,44,96,5.27,RU,1699668591
46,kurchum,48.5722,83.6542,274.83,85,100,2.86,KZ,1699668763
47,mazatan,14.8667,-92.45,299.19,100,20,0.0,MX,1699668764
48,dellys,36.9172,3.9131,290.48,74,9,5.96,DZ,1699668765
49,lohardaga,23.4333,84.6833,293.81,53,0,1.17,IN,1699668766
50,georgetown,5.4112,100.3354,302.11,84,20,1.54,MY,1699668555
51,st. john's,47.5649,-52.7093,276.47,91,75,11.83,CA,1699668769
52,longyearbyen,78.2186,15.6401,262.06,79,75,2.06,SJ,1699668769
53,tsiombe,-25.3,45.4833,291.94,76,59,3.14,MG,1699668770
54,shahdad kot,27.8477,67.9055,292.4,49,0,1.28,PK,1699668771
55,ribeira grande,38.5167,-28.7,293.58,96,15,7.15,PT,1699668772
56,haiku-pauwela,20.9219,-156.3051,301.16,64,20,8.75,US,1699668773
57,lihue,21.9789,-159.3672,301.73,77,75,5.14,US,1699668774
58,ketchikan,55.3422,-131.6461,279.41,81,100,5.66,US,1699668774
59,nova sintra,14.8667,-24.7167,295.6,68,42,2.89,CV,1699668775
60,shimoda,34.6667,138.95,288.21,65,97,6.5,JP,1699668556
61,margaret river,-33.95,115.0667,292.27,46,53,3.9,AU,1699668777
62,selfoss,63.9331,-20.9971,275.29,78,99,2.94,IS,1699668778
63,ilulissat,69.2167,-51.1,267.16,68,100,6.69,GL,1699668778
64,aguie,13.506,7.7786,297.81,19,94,3.26,NE,1699668779
65,reggane,26.7158,0.1714,296.66,29,1,4.88,DZ,1699668780
66,itamaraca,-7.7478,-34.8256,300.18,77,1,4.27,BR,1699668782
67,happy valley-goose bay,53.3168,-60.3315,269.38,89,100,3.47,CA,1699668716
68,stanley,54.868,-1.6985,277.75,87,40,4.63,GB,1699668785
69,kapuskasing,49.4169,-82.4331,270.2,93,100,2.06,CA,1699668785
70,west island,-12.1568,96.8225,301.14,74,75,5.66,CC,1699668786
71,badger,64.8,-147.5333,265.08,88,100,4.12,US,1699668787
72,hanting,36.7708,119.2108,277.91,65,100,1.94,CN,1699668789
73,aasiaat,68.7098,-52.8699,262.54,94,99,2.76,GL,1699668790
74,sisimiut,66.9395,-53.6735,266.51,82,84,5.34,GL,1699668791
75,inari,68.906,27.0288,264.26,94,12,1.94,FI,1699668792
76,whitehorse,60.7161,-135.0538,272.6,100,100,2.06,CA,1699668794
77,klyuchi,52.2667,79.1667,276.55,88,99,4.14,RU,1699668794
78,korla,41.7597,86.1469,279.03,69,100,4.76,CN,1699668795
79,archangelos,36.2149,28.1149,292.21,81,8,3.22,GR,1699668796
80,ixmiquilpan,20.4833,-99.2333,290.93,86,92,1.47,MX,1699668796
81,zaragoza,41.6561,-0.8773,291.2,77,75,2.06,ES,1699668797
82,albany,42.6001,-73.9662,280.56,60,50,2.41,US,1699668798
83,coahuayana de hidalgo,18.7,-103.6583,298.95,86,99,0.99,MX,1699668800
84,papatowai,-46.5619,169.4708,291.61,41,0,1.89,NZ,1699668801
85,znamenskoye,57.1281,73.8282,274.42,98,100,2.16,RU,1699668802
86,north battleford,52.7834,-108.2847,272.82,93,0,6.17,CA,1699668802
87,atafu village,-8.5421,-172.5159,302.42,73,6,4.5,TK,1699668803
88,antsiranana,-12.2787,49.2917,297.09,90,19,1.88,MG,1699668626
89,rongelap,11.1635,166.8941,300.1,85,100,8.7,MH,1699668805
90,margate,51.3813,1.3862,278.54,87,6,3.13,GB,1699668714
91,kone,-21.0595,164.8658,299.8,50,51,4.44,NC,1699668806
92,nephi,39.7102,-111.8363,276.66,34,92,0.85,US,1699668636
93,brosteni,47.2333,25.7,276.16,87,100,2.19,RO,1699668808
94,wenchang,30.904,118.4887,284.99,79,100,5.07,CN,1699668809
95,port lincoln,-34.7333,135.8667,289.71,55,84,8.32,AU,1699668810
96,turochak,52.2576,87.1224,272.88,98,100,1.12,RU,1699668811
97,hadgaon,19.5,77.6667,295.98,59,41,1.02,IN,1699668812
98,kourou,5.1552,-52.6478,300.08,84,20,4.66,GF,1699668609
99,laboulaye,-34.1266,-63.3912,289.41,97,100,3.81,AR,1699668814
100,kendari,-3.945,122.4989,305.69,45,42,2.21,ID,1699668814
101,fiambala,-27.6871,-67.6149,296.26,16,0,2.15,AR,1699668815
102,ezine,39.7856,26.3408,292.74,87,94,6.64,TR,1699668816
103,nikolayevsk-on-amure,53.1406,140.73,265.74,79,100,5.11,RU,1699668817
104,tiksi,71.6872,128.8694,260.2,86,100,8.66,RU,1699668818
105,pontevedra,42.431,-8.6444,290.7,99,100,4.31,ES,1699668581
106,avarua,-21.2078,-159.775,299.18,89,40,2.57,CK,1699668819
107,vilyuchinsk,52.9306,158.4028,274.3,99,100,0.91,RU,1699668820
108,wailua homesteads,22.0669,-159.378,301.39,82,75,5.14,US,1699668821
109,isafjordur,66.0755,-23.124,273.46,78,84,1.32,IS,1699668629
110,port saint john's,-31.6229,29.5448,293.85,87,5,4.26,ZA,1699668823
111,la ronge,55.1001,-105.2842,271.29,86,100,7.72,CA,1699668823
112,torghay,49.6339,63.4981,281.0,68,100,6.35,KZ,1699668824
113,melekeok village,7.4957,134.6367,304.46,74,75,3.6,PW,1699668825
114,vorkuta,67.5,64.0,258.33,100,96,2.74,RU,1699668704
115,karachi,24.9056,67.0822,290.05,45,0,0.0,PK,1699668612
116,quellon,-43.1167,-73.6167,282.46,90,100,9.77,CL,1699668827
117,rexburg,43.826,-111.7897,275.88,55,0,1.54,US,1699668735
118,hawaiian paradise park,19.5933,-154.9731,298.09,93,100,4.12,US,1699668793
119,arraial do cabo,-22.9661,-42.0278,295.93,92,38,0.15,BR,1699668830
120,port alfred,-33.5906,26.891,291.03,91,67,3.58,ZA,1699668650
121,kenai,60.5544,-151.2583,272.64,97,100,2.57,US,1699668831
122,saint-philippe,-21.3585,55.7679,294.88,83,99,0.56,RE,1699668832
123,tingi,-11.3,35.0333,292.12,80,90,3.44,TZ,1699668833
124,mar del plata,-38.0023,-57.5575,289.16,87,100,14.75,AR,1699668834
125,portland,45.5234,-122.6762,284.71,86,100,2.68,US,1699668835
126,castillos,-34.1667,-53.8333,288.74,92,100,8.57,UY,1699668837
127,fukuecho,32.6881,128.8419,289.36,60,76,7.4,JP,1699668838
128,ust-nera,64.5667,143.2,245.48,96,55,1.92,RU,1699668674
129,lebu,-37.6167,-73.65,284.89,78,100,9.32,CL,1699668839
130,omutinskiy,56.4745,67.6709,273.01,94,100,3.19,RU,1699668839
131,luena,-11.7833,19.9167,291.08,91,99,1.49,AO,1699668840
132,lompoc,34.6391,-120.4579,289.27,85,0,11.62,US,1699668841
133,mandalgovi,45.7625,106.2708,262.25,36,0,6.71,MN,1699668842
134,mouila,-1.8685,11.0559,296.08,99,100,1.09,GA,1699668843
135,alofi,-19.0595,-169.9187,296.54,95,100,1.74,NU,1699668843
136,khvansar,33.2205,50.315,280.33,49,97,0.82,IR,1699668844
137,thoen,17.6129,99.2161,300.86,78,93,0.86,TH,1699668595
138,miguelturra,38.9644,-3.8905,286.43,91,95,5.81,ES,1699668846
139,tulun,54.5611,100.5792,259.54,91,45,1.85,RU,1699668846
140,arar,30.9753,41.0381,289.16,31,0,0.0,SA,1699668847
141,acarau,-2.8856,-40.12,299.51,79,5,8.24,BR,1699668848
142,thief river falls,48.1191,-96.1812,271.11,86,100,0.0,US,1699668764
143,dunedin,-45.8742,170.5036,294.3,64,0,3.58,NZ,1699668849
144,berriane,32.8265,3.7669,287.88,52,10,4.44,DZ,1699668850
145,hermanus,-34.4187,19.2345,290.13,79,100,1.35,ZA,1699668851
146,sovetskiy,61.3614,63.5842,273.09,90,100,2.24,RU,1699668762
147,puerto leguizamo,-0.1934,-74.7819,295.22,99,100,1.02,CO,1699668852
148,bumba,2.1833,22.4667,295.19,97,100,0.95,CD,1699668853
149,tolanaro,-25.0319,46.9987,292.48,74,41,1.11,MG,1699668854
150,thongwa,16.7619,96.5278,300.24,85,100,2.82,MM,1699668855
151,lubang,13.8584,120.124,301.37,76,90,6.81,PH,1699668855
152,tual,-5.6667,132.75,301.14,77,66,4.29,ID,1699668576
153,qui nhon,13.7667,109.2333,300.08,84,49,2.96,VN,1699668857
154,sawakin,19.1059,37.3321,300.8,73,0,0.72,SD,1699668651
155,port isabel,26.0734,-97.2086,290.17,91,100,7.72,US,1699668859
156,san patricio,28.017,-97.5169,289.12,90,100,4.55,US,1699668777
157,cidreira,-30.1811,-50.2056,292.97,89,100,10.94,BR,1699668861
158,khovd,48.0056,91.6419,268.63,92,100,0.68,MN,1699668862
159,taoudenni,22.6783,-3.9836,296.43,17,0,3.49,ML,1699668863
160,massakory,12.996,15.7293,301.48,22,64,4.31,TD,1699668863
161,asau,46.4333,26.4,281.66,92,99,1.05,RO,1699668864
162,kodiak,57.79,-152.4072,274.88,51,75,7.72,US,1699668866
163,guerrero negro,27.9769,-114.0611,293.1,54,0,6.58,MX,1699668644
164,port hedland,-20.3167,118.5667,304.18,62,40,5.14,AU,1699668867
165,faya-largeau,17.9257,19.1043,298.44,25,88,5.51,TD,1699668868
166,paradsasvar,47.9126,19.9771,279.54,98,100,1.32,HU,1699668869
167,qaqortoq,60.7167,-46.0333,266.25,58,44,4.46,GL,1699668870
168,borskoye,53.0333,51.7167,277.05,82,100,7.26,RU,1699668871
169,san antonio oeste,-40.7319,-64.9477,293.14,66,100,12.34,AR,1699668871
170,dudinka,69.4058,86.1778,267.94,95,100,8.49,RU,1699668586
171,luis correia,-2.8792,-41.6669,299.56,76,3,8.56,BR,1699668873
172,lethbridge,49.7,-112.8186,276.6,55,0,8.23,CA,1699668838
173,saudarkrokur,65.7461,-19.6394,272.32,79,97,2.76,IS,1699668874
174,anthiyur,11.5833,77.6,296.7,89,33,1.98,IN,1699668875
175,port douglas,-16.4833,145.4667,299.71,67,65,5.71,AU,1699668875
176,san mariano,7.5,126.0,301.66,72,67,2.09,PH,1699668876
177,salmon arm,50.6998,-119.3024,280.77,70,100,2.06,CA,1699668877
178,yeed,4.55,43.0333,297.3,82,53,4.5,SO,1699668878
179,pagar alam,-4.0167,103.2667,298.43,76,100,0.5,ID,1699668879
180,fort bragg,35.139,-79.006,286.06,62,100,3.6,US,1699668880
181,chonchi,-42.6128,-73.8092,282.1,97,100,5.87,CL,1699668880
182,ghanzi,-21.5667,21.7833,299.41,24,92,5.45,BW,1699668882
183,diu,20.7141,70.9822,299.73,59,6,3.39,IN,1699668883
184,lakatoro,-16.0999,167.4164,300.3,74,66,9.16,VU,1699668885
185,puerto baquerizo moreno,-0.9,-89.6,297.5,81,48,5.28,EC,1699668886
186,kamiiso,41.8167,140.65,277.36,60,75,9.77,JP,1699668887
187,padang,-0.9492,100.3543,299.18,88,89,1.19,ID,1699668617
188,urzhar,47.093,81.6294,277.76,90,66,1.87,KZ,1699668888
189,talnakh,69.4865,88.3972,267.71,95,100,6.05,RU,1699668889
190,coquimbo,-29.9533,-71.3436,289.0,88,100,1.03,CL,1699668890
191,barranca,-10.75,-77.7667,291.77,85,28,3.34,PE,1699668891
192,valfin-les-saint-claude,46.4376,5.8551,279.34,94,100,2.7,FR,1699668891
193,aykhal,66.0,111.5,264.87,60,99,10.44,RU,1699668892
194,arno,60.1167,18.6333,279.7,94,70,3.13,SE,1699668893
195,lishui,28.4604,119.9103,286.53,96,100,0.85,CN,1699668893
196,moapa valley,36.5805,-114.4703,287.15,20,100,0.5,US,1699668629
197,kostomuksha,64.571,30.5767,265.95,99,70,1.34,RU,1699668881
198,anadyr,64.75,177.4833,259.43,78,20,8.0,RU,1699668600
199,gadzhiyevo,69.2551,33.3362,266.15,96,77,3.16,RU,1699668898
200,al minya,28.1099,30.7503,294.94,65,100,4.45,EG,1699668898
201,three points,32.0767,-111.3137,291.53,17,0,2.06,US,1699668899
202,dryden,49.7833,-92.7503,270.31,86,100,1.03,CA,1699668900
203,city of balikpapan,-1.242,116.8942,304.12,79,20,3.09,ID,1699668900
204,makoua,0.0069,15.6333,295.16,99,100,1.11,CG,1699668901
205,al jawf,29.5,38.75,294.29,38,28,3.84,SA,1699668902
206,mumford,5.2618,-0.759,299.36,88,98,5.0,GH,1699668903
207,la romana,18.4273,-68.9728,297.35,94,75,0.0,DO,1699668903
208,smithers,54.7804,-127.1743,278.33,75,75,3.09,CA,1699668906
209,thunder bay,48.4001,-89.3168,271.78,81,99,2.43,CA,1699668649
210,albania,41.0,20.0,285.12,90,48,1.91,AL,1699668907
211,el triunfo,-1.9333,-79.9667,298.17,72,100,3.9,EC,1699668908
212,nuuk,64.1835,-51.7216,267.49,73,23,6.71,GL,1699668909
213,el hadjira,32.6134,5.5126,290.7,47,6,3.76,DZ,1699668911
214,porto novo,6.4965,2.6036,299.84,85,93,2.93,BJ,1699668911
215,la'ie,21.6477,-157.9253,302.13,84,14,2.24,US,1699668912
216,falconara marittima,43.6233,13.4031,284.31,82,20,2.06,IT,1699668913
217,umm kaddadah,13.6017,26.6876,298.57,29,83,4.64,SD,1699668914
218,fairwood,47.4484,-122.1573,283.56,82,100,5.66,US,1699668914
219,tura,25.5198,90.2201,294.52,77,0,1.02,IN,1699668682
220,mujiayingzi,42.1167,118.7833,266.87,57,1,3.37,CN,1699668916
221,jamestown,42.097,-79.2353,280.92,86,100,2.06,US,1699668653
222,lerwick,60.1545,-1.1494,279.15,75,100,9.54,GB,1699668702
223,ola,59.5833,151.2833,260.04,72,46,5.47,RU,1699668919
224,egilsstadir,65.2653,-14.3948,267.1,93,0,3.09,IS,1699668920
225,pinotepa nacional,16.3167,-98.0167,298.26,86,6,0.16,MX,1699668920
226,lyantor,61.6195,72.1555,271.98,93,100,4.33,RU,1699668921
227,kolosovka,56.4678,73.611,274.61,99,100,2.41,RU,1699668923
228,daru,-9.0763,143.2092,301.58,65,25,4.72,PG,1699668924
229,abu jibeha,11.4562,31.2285,297.68,69,70,1.05,SD,1699668925
230,fale old settlement,-9.3852,-171.2468,302.06,75,32,4.15,TK,1699668925
231,thompson,55.7435,-97.8558,272.24,86,100,5.14,CA,1699668927
232,capao da canoa,-29.7456,-50.0097,293.01,92,100,7.56,BR,1699668739
233,luganville,-15.5333,167.1667,299.76,81,83,7.05,VU,1699668929
234,corner brook,48.9667,-57.9484,273.24,98,100,2.67,CA,1699668930
235,yellowknife,62.456,-114.3525,275.05,100,75,2.06,CA,1699668931
236,kosh-agach,50.0,88.6667,263.88,90,100,0.89,RU,1699668932
237,geraldton,-28.7667,114.6,300.38,26,40,7.72,AU,1699668933
238,saipan,15.1355,145.701,304.54,66,40,9.26,MP,1699668934
239,richards bay,-28.783,32.0377,292.96,83,0,7.6,ZA,1699668935
240,labytnangi,66.6572,66.4183,262.64,90,100,2.57,RU,1699668936
241,mejit,10.2753,170.8646,300.75,84,100,9.0,MH,1699668937
242,prince rupert,54.3161,-130.3201,281.98,90,100,7.72,CA,1699668937
243,touba,8.2833,-7.6833,295.56,91,100,1.61,CI,1699668938
244,melfort,52.8667,-104.6177,268.22,86,6,6.17,CA,1699668939
245,namibe,-15.1961,12.1522,292.22,82,70,2.09,AO,1699668940
246,tralee,52.2704,-9.7026,280.59,86,74,1.26,IE,1699668941
247,khandyga,62.6667,135.6,243.81,97,80,0.2,RU,1699668750
248,ugoofaaru,5.6667,73.0,300.95,78,75,2.76,MV,1699668943
249,an nuhud,12.7,28.4333,300.46,30,100,3.95,SD,1699668944
250,swakopmund,-22.6833,14.5333,288.07,94,74,1.14,NA,1699668759
251,'alaqahdari dishu,30.4374,63.313,286.49,28,0,1.1,AF,1699668946
252,robore,-18.3333,-59.75,303.66,41,75,2.91,BO,1699668949
253,meiktila,20.8667,95.8667,298.29,75,45,3.34,MM,1699668950
254,ouani,-12.1322,44.4258,299.71,81,54,3.11,KM,1699668950
255,kalaleh,37.3807,55.4916,287.93,88,100,2.06,IR,1699668952
256,wichian buri,15.6578,101.106,300.65,81,83,0.89,TH,1699668953
257,keflavik,64.0049,-22.5624,275.39,93,75,3.09,IS,1699668954
258,mournies,35.4764,24.0092,294.17,94,20,0.0,GR,1699668955
259,misratah,32.3754,15.0925,295.22,63,67,2.25,LY,1699668956
260,bondo,3.8146,23.6866,294.49,100,100,0.73,CD,1699668956
261,tazovsky,67.4667,78.7,263.64,96,100,2.66,RU,1699668957
262,praia da vitoria,38.7333,-27.0667,294.29,88,40,7.21,PT,1699668958
263,san pedro,14.35,121.0167,303.88,71,75,4.12,PH,1699668959
264,san jose,37.3394,-121.895,290.3,48,20,7.6,US,1699668920
265,abreus,22.2775,-80.5675,298.32,90,6,5.16,CU,1699668960
266,mount pearl,47.5166,-52.7813,276.01,91,99,4.02,CA,1699668713
267,kismayo,-0.3582,42.5454,299.82,83,92,2.26,SO,1699668962
268,la passe,45.5549,-0.8967,283.14,72,100,2.92,FR,1699668962
269,murray bridge,-35.1167,139.2667,292.66,49,37,8.66,AU,1699668963
270,ancud,-41.8697,-73.8203,282.87,88,100,11.36,CL,1699668964
271,whangarei,-35.7317,174.3239,293.74,39,9,0.79,NZ,1699668966
272,danjiangkou,32.5428,111.5086,278.57,65,100,2.35,CN,1699668821
273,kokopo,-4.352,152.2633,301.33,76,100,4.57,PG,1699668968
274,touros,-5.1989,-35.4608,298.67,72,1,6.2,BR,1699668968
275,siavonga,-16.5382,28.7088,299.38,51,79,4.7,ZM,1699668969
276,fortuna,40.5982,-124.1573,285.74,92,100,0.0,US,1699668970
277,terrace,54.5163,-128.6035,274.1,100,100,1.54,CA,1699668909
278,labrador city,52.9463,-66.9114,263.1,92,75,0.0,CA,1699668971
279,naze,28.3667,129.4833,294.59,66,100,5.68,JP,1699668841
280,araxa,-19.5933,-46.9406,294.01,36,24,1.33,BR,1699668905
281,island harbour,50.724,-1.2758,280.37,89,10,0.89,GB,1699668975
282,saint-pierre,-21.3393,55.4781,295.69,88,100,3.09,RE,1699668976
283,rostusa,41.61,20.6,281.56,93,99,2.71,MK,1699668977
284,hithadhoo,-0.6,73.0833,300.2,83,34,6.6,MV,1699668978
285,orita eruwa,7.55,3.4333,297.39,93,98,1.33,NG,1699668979
286,cangucu,-31.395,-52.6756,288.5,97,94,5.25,BR,1699668718
287,bardai,11.65,7.2333,295.9,22,98,2.69,NG,1699668981
288,broken hill,-31.95,141.4333,307.89,18,28,5.05,AU,1699668981
289,paita,-5.0892,-81.1144,293.17,80,33,6.36,PE,1699668982
290,remire-montjoly,4.9167,-52.2667,300.68,82,8,6.41,GF,1699668983
291,port macquarie,-31.4333,152.9167,299.2,61,0,7.57,AU,1699668984
292,roma,43.2128,-75.4557,278.91,77,100,2.57,US,1699668985
293,arkhangel'sk,64.5401,40.5433,273.78,98,100,1.92,RU,1699668986
294,nago,26.5881,127.9761,298.4,66,94,5.19,JP,1699668986
295,enewetak,11.3474,162.3373,301.81,76,88,7.8,MH,1699668752
296,brigantine,39.4101,-74.3646,280.37,94,20,2.57,US,1699668988
297,vangaindrano,-23.35,47.6,294.09,70,94,4.16,MG,1699668988
298,waddan,29.1614,16.139,292.88,37,0,2.36,LY,1699668989
299,sitka,57.0531,-135.33,280.09,81,100,7.2,US,1699668990
300,high rock,26.6208,-78.2833,298.9,82,11,5.43,BS,1699668991
301,mosfellsbaer,64.1667,-21.7,275.16,92,75,3.6,IS,1699668992
302,dakhla,23.6848,-15.958,293.01,82,5,7.56,EH,1699668993
303,lazaro cardenas,17.9583,-102.2,299.75,82,4,0.59,MX,1699668993
304,wickenburg,33.9686,-112.7296,289.36,18,88,1.37,US,1699668994
305,wynyard,-41.0,145.7167,290.9,39,12,6.86,AU,1699668996
306,shimokizukuri,40.8061,140.3861,276.77,85,100,9.09,JP,1699668996
307,ust'-kulom,61.6864,53.6902,273.15,88,100,1.87,RU,1699668997
308,shiyan,32.6475,110.7781,276.83,81,100,1.35,CN,1699668999
309,flying fish cove,-10.4217,105.6791,301.97,69,40,5.66,CX,1699669000
310,nyurba,63.2842,118.3319,260.09,93,79,3.64,RU,1699669000
311,singrauli,24.1997,82.6753,294.16,52,0,1.26,IN,1699669001
312,nepanagar,21.4667,76.4,296.57,52,3,0.6,IN,1699669002
313,weno,7.4515,151.8468,303.12,84,100,4.12,FM,1699669003
314,capao bonito,-24.0058,-48.3494,291.27,98,100,2.48,BR,1699669004
315,oodweyne,9.4092,45.064,294.84,53,100,1.05,SO,1699669005
316,kisanga,-7.4362,37.7034,296.38,92,99,1.06,TZ,1699669006
317,kyadabek,40.5656,45.8161,275.17,91,76,0.41,AZ,1699669007
318,chenzhou,25.8,113.0333,285.53,97,100,2.03,CN,1699669007
319,sinabang,2.4803,96.3801,299.97,79,100,0.51,ID,1699668743
320,baker city,44.7749,-117.8344,278.81,77,0,0.0,US,1699669009
321,monywa,22.1167,95.1333,297.93,75,9,2.87,MM,1699669010
322,gizo,-8.103,156.8419,301.15,76,100,8.38,SB,1699669011
323,bandarbeyla,9.4942,50.8122,299.78,84,100,6.48,SO,1699669012
324,beloretsk,53.9631,58.3981,276.22,86,100,3.58,RU,1699669013
325,cockburn town,21.4612,-71.1419,301.59,76,100,9.78,TC,1699669014
326,tommot,58.9564,126.2925,261.27,91,100,3.43,RU,1699669015
327,zabol,32.25,67.25,278.79,45,0,2.29,AF,1699669015
328,bronxville,40.9381,-73.8321,281.97,73,0,4.12,US,1699669016
329,college,64.8569,-147.8028,265.12,85,100,4.12,US,1699669017
330,floro,61.5996,5.0328,278.69,75,75,2.57,NO,1699669017
331,sandnessjoen,66.0217,12.6316,268.44,69,1,8.31,NO,1699669018
332,susuman,62.7833,148.1667,248.24,98,92,0.74,RU,1699669019
333,codrington,-38.2667,141.9667,289.48,50,7,7.09,AU,1699669019
334,nagato,34.3833,131.2,288.89,66,100,5.22,JP,1699669020
335,sinop,41.7711,34.8709,284.52,75,72,5.39,TR,1699669021
336,kerikeri,-35.2268,173.9474,291.78,57,24,3.81,NZ,1699668900
337,east london,-33.0153,27.9116,292.78,86,100,3.06,ZA,1699669024
338,konarka,19.9,86.1167,294.37,69,7,3.45,IN,1699668816
339,sola,-13.8833,167.55,299.35,84,99,11.48,VU,1699669026
340,sigli,5.3848,95.9609,301.05,74,100,0.73,ID,1699669026
341,wabag,-5.4781,143.7021,296.56,37,91,0.79,PG,1699669027
342,belmonte,-15.8631,-38.8828,297.95,85,3,4.74,BR,1699669028
343,el fahs,36.3742,9.9065,286.05,71,9,3.33,TN,1699669029
344,kalianget,-7.05,113.9333,302.97,65,100,3.28,ID,1699669030
345,newman,37.3138,-121.0208,288.87,55,100,2.67,US,1699668753
346,hakha,22.65,93.6167,289.77,65,0,0.81,MM,1699669032
347,yerofey pavlovich,53.9667,121.9667,265.07,52,61,2.59,RU,1699669033
348,alice springs,-23.7,133.8833,307.9,23,0,5.66,AU,1699668934
349,copala,16.65,-98.9833,299.51,87,11,1.45,MX,1699669034
350,soio,-6.1349,12.3689,298.78,86,100,4.48,AO,1699669035
351,kindu,-2.95,25.95,294.26,96,100,0.72,CD,1699669036
352,gbadolite,4.2833,21.0167,295.26,98,100,0.44,CD,1699669037
353,carutapera,-1.195,-46.02,300.12,74,14,5.07,BR,1699668740
354,wangkui,46.8333,126.5,264.24,74,6,2.86,CN,1699669039
355,masalovka,48.4053,40.2706,277.61,84,52,2.45,RU,1699669039
356,howrah,22.5892,88.3103,296.15,78,20,3.09,IN,1699669040
357,sosnovo-ozerskoye,52.5249,111.5418,259.21,87,74,3.06,RU,1699668746
358,constantia,44.1833,28.65,285.76,83,100,6.21,RO,1699668845
359,hala,25.8131,68.4227,294.49,28,0,3.45,PK,1699669043
360,kalix,65.853,23.1565,264.75,80,6,4.1,SE,1699669043
361,waingapu,-9.6567,120.2641,304.62,54,0,3.88,ID,1699669044
362,jelgava,56.65,23.7128,278.71,95,98,2.6,LV,1699669045
363,kingston,17.997,-76.7936,302.68,83,20,5.66,JM,1699669009
364,mugia,43.1041,-9.2179,289.77,97,100,8.66,ES,1699669047
365,conduaga,8.862,117.4893,303.19,67,34,0.45,PH,1699669048
366,callao,-12.0667,-77.15,293.55,77,0,5.14,PE,1699668820
367,kolobrzeg,54.1757,15.5834,279.24,86,13,4.2,PL,1699668935
368,norfolk,42.1668,-71.2495,280.21,75,0,2.06,US,1699669050
369,okhotsk,59.3833,143.3,257.88,81,9,9.53,RU,1699668954
370,northam,51.0333,-4.2167,283.29,84,58,6.34,GB,1699669052
371,fort st. john,56.2499,-120.8529,275.09,64,100,6.69,CA,1699669053
372,jimeta,9.2833,12.4667,298.41,32,68,1.87,NG,1699669054
373,ca mau,9.1769,105.15,301.26,85,93,4.32,VN,1699669055
374,leninskoye,41.7589,69.3864,283.41,23,100,0.54,KZ,1699669056
375,ta`u,-14.2336,-169.5144,301.0,79,26,2.26,AS,1699669057
376,laojunmiao,39.8333,97.7333,269.7,32,0,4.22,CN,1699669058
377,ulsteinvik,62.3432,5.8487,276.66,78,36,3.13,NO,1699669059
378,barentu,15.1139,37.5928,294.49,59,5,1.94,ER,1699669059
379,kuqa,41.7278,82.9364,280.83,58,98,0.74,CN,1699669060
380,usinsk,65.9939,57.5281,267.63,81,100,2.24,RU,1699669061
381,singkil,-7.9855,111.4161,304.35,56,32,2.1,ID,1699669062
382,jinghong,21.991,100.7341,298.23,62,0,0.75,CN,1699669062
383,itoman,26.1247,127.6694,298.37,78,75,6.17,JP,1699669063
384,new norfolk,-42.7826,147.0587,291.44,44,51,4.94,AU,1699668828
385,al hamul,31.3115,31.1477,293.02,82,100,2.87,EG,1699669065
386,griffith,41.5284,-87.4237,278.77,67,100,3.6,US,1699669065
387,barakani,-12.1356,44.4317,299.42,81,53,3.1,KM,1699669067
388,rondonopolis,-16.4708,-54.6356,304.16,31,83,1.31,BR,1699669015
389,palmer,42.1584,-72.3287,278.89,78,75,0.0,US,1699669068
390,benalla,-36.55,145.9833,304.74,31,10,4.2,AU,1699669069
391,capitao poco,-1.7464,-47.0594,298.12,85,5,2.5,BR,1699669070
392,kapa'a,22.0752,-159.319,302.14,83,75,5.14,US,1699669071
393,coxim,-18.5067,-54.76,305.6,24,92,1.27,BR,1699669072
394,mount gambier,-37.8333,140.7667,290.57,43,6,5.09,AU,1699669072
395,sur,22.5667,59.5289,298.47,65,8,3.83,OM,1699669073
396,wotje,9.4543,170.2367,299.99,89,100,9.06,MH,1699669074
397,cabo san lucas,22.8909,-109.9124,300.79,71,0,1.54,MX,1699669065
398,gatesville,31.4352,-97.7439,286.69,96,100,2.57,US,1699669075
399,tindouf,27.6711,-8.1474,294.26,27,44,2.81,DZ,1699669077
400,lundazi,-12.2929,33.1782,292.98,82,54,4.33,ZM,1699669077
401,hobyo,5.3505,48.5268,297.65,89,100,4.59,SO,1699669078
402,ebaye,8.7748,167.7392,300.16,89,75,6.69,MH,1699669079
403,qarazhal,48.0078,70.7903,277.56,77,100,5.08,KZ,1699669080
404,garachico,28.7781,-17.7646,292.86,78,0,4.12,ES,1699669081
405,inhambane,-23.865,35.3833,294.07,76,0,3.39,MZ,1699669081
406,ulricehamn,57.7916,13.4142,281.16,96,100,1.41,SE,1699669082
407,campos belos,-13.0367,-46.7717,302.65,29,100,2.33,BR,1699669083
408,myeik,12.4333,98.6,300.58,80,97,1.7,MM,1699669084
409,osmancik,40.9782,34.8047,284.38,78,77,0.48,TR,1699669084
410,rabo de peixe,37.8,-25.5833,294.81,99,75,9.26,PT,1699669085
411,klaksvik,62.2266,-6.589,277.66,74,40,7.43,FO,1699669086
412,severobaykal'sk,55.65,109.3167,263.43,54,34,1.56,RU,1699669087
413,al mijlad,11.0333,27.7333,300.96,58,61,2.85,SD,1699669088
414,mossendjo,-2.9506,12.7261,294.02,99,100,1.99,CG,1699669088
415,ulan-ude,51.8261,107.6098,263.09,78,35,3.0,RU,1699669089
416,salavan,15.7167,106.4167,301.42,73,23,0.91,LA,1699669090
417,dhidhdhoo,6.8833,73.1,301.33,77,32,4.29,MV,1699669090
418,homer,59.6425,-151.5483,275.08,77,100,3.6,US,1699669091
419,camenca,48.0319,28.6978,284.94,86,100,7.54,MD,1699669093
420,zdvinsk,54.7021,78.661,274.17,96,96,4.39,RU,1699669093
421,hasaki,35.7333,140.8333,286.37,63,100,10.64,JP,1699669094
422,nuku'alofa,-21.1333,-175.2,296.34,83,75,8.75,TO,1699669095
423,falun,60.6036,15.626,278.68,96,100,2.17,SE,1699669096
424,carnarvon,-24.8667,113.6333,296.42,56,2,8.03,AU,1699669097
425,mangrol,21.1167,70.1167,299.77,59,16,3.84,IN,1699669098
426,vadso,70.0744,29.7487,272.24,86,40,1.54,NO,1699669099
427,kuching,1.55,110.3333,303.27,70,20,2.06,MY,1699669100
428,malabar,-33.9667,151.25,308.03,66,0,5.66,AU,1699668866
429,curaca,-8.9903,-39.9094,299.51,52,0,11.14,BR,1699669102
430,san antonio de pale,-1.4014,5.6325,299.15,84,100,5.59,GQ,1699669103
431,nacozari viejo,30.4,-109.65,284.04,30,0,0.74,MX,1699669104
432,mermoz boabab,14.7065,-17.4758,297.03,88,79,2.06,SN,1699669105
433,mpulungu,-8.7623,31.1141,298.04,65,72,3.14,ZM,1699669105
434,enshi,30.3,109.4833,286.22,95,100,0.52,CN,1699669106
435,peniche,39.3558,-9.3811,291.64,94,96,5.06,PT,1699669107
436,moires,35.0532,24.8744,293.57,88,3,0.89,GR,1699669108
437,nar'yan-mar,67.6713,53.087,264.32,93,96,3.13,RU,1699669109
438,mount isa,-20.7333,139.5,308.02,31,40,5.66,AU,1699669110
439,adrar,20.5022,-10.0711,294.28,29,0,3.68,MR,1699669111
440,muang phonsavan,19.45,103.2167,296.72,70,79,1.04,LA,1699669111
441,wenceslau braz,-23.8739,-49.8028,292.34,92,94,4.6,BR,1699669069
442,richmond,37.5538,-77.4603,280.46,91,20,2.57,US,1699668455
443,mena,51.5217,32.2157,278.7,78,100,6.22,UA,1699669114
444,bathsheba,13.2167,-59.5167,299.49,89,40,9.26,BB,1699669115
445,terbanggi besar,-4.8667,105.2333,303.78,58,86,3.87,ID,1699669116
446,yeppoon,-23.1333,150.7333,302.03,58,38,4.47,AU,1699669118
447,shamakhi,40.6314,48.6414,281.5,73,100,1.64,AZ,1699669118
448,kitob,39.0843,66.8332,286.45,23,100,1.29,UZ,1699669119
449,bikenibeu village,1.3673,173.1241,304.13,74,75,3.09,KI,1699669120
450,nkove,-7.95,30.85,298.22,67,100,1.26,TZ,1699669121
451,hamilton,39.1834,-84.5333,283.56,53,0,3.6,US,1699669072
452,cholpon-ata,42.6494,77.0823,272.18,52,30,2.31,KG,1699669122
453,tvoroyri,61.5556,-6.8111,280.92,70,77,6.48,FO,1699669123
454,bull savanna,17.8868,-77.5902,298.88,83,17,3.87,JM,1699669124
455,tuy hoa,13.0833,109.3,300.81,81,71,2.84,VN,1699669125
456,kupang,-10.1667,123.5833,306.47,58,40,3.6,ID,1699669126
457,sosnovka,56.255,51.2842,275.38,93,100,5.36,RU,1699669127
458,isetskoye,56.4858,65.3226,275.0,95,100,3.52,RU,1699669127
459,colonia menno,-22.3667,-59.8167,310.09,27,90,9.07,PY,1699669128
460,nushki,29.5542,66.0215,286.73,30,0,0.39,PK,1699669129
461,madimba,-10.4,40.3333,298.0,90,21,2.88,TZ,1699669130
462,panaba,21.2833,-88.2667,297.58,93,10,3.72,MX,1699669131
463,raja,8.4596,25.678,295.94,84,100,1.07,SS,1699669131
464,envira,-7.3,-70.2167,298.18,78,3,1.05,BR,1699669132
465,coari,-4.085,-63.1414,301.69,48,99,1.51,BR,1699669133
466,az zawiyah,32.0963,35.0398,292.07,82,0,1.03,PS,1699669134
467,shingu,33.7333,135.9833,288.97,56,98,1.97,JP,1699669136
468,caleta de carquin,-11.0925,-77.6267,292.4,85,18,4.07,PE,1699669137
469,hadibu,12.65,54.0333,299.9,82,100,5.86,YE,1699669138
470,polyarnyy,69.1989,33.4478,265.82,96,65,3.2,RU,1699669138
471,pimentel,-6.8367,-79.9342,293.31,83,0,6.69,PE,1699669139
472,zemio,5.0314,25.1361,293.71,98,95,0.31,CF,1699669140
473,kidal,18.4411,1.4078,298.58,13,80,2.76,ML,1699669141
474,rawson,-43.3002,-65.1023,294.71,16,58,5.12,AR,1699669141
475,strezhevoy,60.7333,77.5889,269.24,94,100,1.79,RU,1699669142
476,luanco,43.6152,-5.7934,286.86,99,100,1.76,ES,1699669143
477,piet retief,-27.0071,30.8132,286.69,96,4,1.81,ZA,1699669144
478,aguada de pasajeros,22.385,-80.8508,298.18,89,6,4.81,CU,1699669145
479,karratha,-20.7377,116.8463,305.24,26,0,6.22,AU,1699669022
480,betare oya,5.6,14.0833,292.77,97,100,0.93,CM,1699669146
481,kiunga,-6.1219,141.2906,305.68,53,94,0.78,PG,1699669147
482,yaren,-0.5472,166.916,301.38,82,99,13.58,NR,1699669148
483,mata-utu,-13.2816,-176.1745,301.7,77,100,4.79,WF,1699669149
484,fisterra,42.9049,-9.2629,289.68,97,100,8.54,ES,1699669149
485,hempstead,40.7062,-73.6187,282.04,77,20,5.66,US,1699669150
486,darwin,-12.4611,130.8418,305.14,62,75,4.63,AU,1699669096
487,fethiye,36.6217,29.1164,288.08,63,4,1.9,TR,1699669152
488,kizhinga,51.8462,109.9097,262.46,75,22,2.22,RU,1699669153
489,houlton,46.1262,-67.8403,274.66,93,100,0.0,US,1699669153
490,torquay,50.4638,-3.5143,280.51,81,69,5.12,GB,1699669154
491,east ballina,-28.8667,153.5833,297.48,67,45,4.05,AU,1699669155
492,tamandare,-8.7597,-35.1047,297.43,77,4,2.92,BR,1699669156
493,nizhneangarsk,55.7833,109.55,263.15,52,27,1.79,RU,1699669157
494,bechar,31.6167,-2.2167,291.51,36,15,2.41,DZ,1699669157
495,walvis bay,-22.9575,14.5053,287.97,94,66,0.99,NA,1699669158
496,trujillo,-8.116,-79.03,292.13,88,7,3.09,PE,1699669104
497,hampton bays,40.869,-72.5176,284.18,78,0,4.02,US,1699669161
498,papao,-17.75,-149.55,302.97,75,94,2.38,PF,1699669162
499,derbent,42.0678,48.2899,284.44,59,7,2.22,RU,1699669163
500,camabatela,-8.1881,15.375,290.38,98,100,0.52,AO,1699669164
501,severo-yeniseyskiy,60.3725,93.0408,259.03,94,85,1.79,RU,1699669165
502,bulgan,48.8125,103.5347,260.06,69,1,1.54,MN,1699669165
503,fada,9.5667,8.3,294.26,54,97,0.43,NG,1699669166
504,holualoa,19.6228,-155.9522,299.06,80,100,3.09,US,1699669120
505,poso,-1.3959,120.7524,304.17,62,58,2.0,ID,1699669168
506,colonia,50.9333,6.95,280.91,92,100,3.09,DE,1699669168
507,behshahr,36.6923,53.5526,288.92,90,100,2.47,IR,1699669169
508,trairi,-3.2778,-39.2689,299.47,75,21,6.22,BR,1699668969
509,batticaloa,7.7102,81.6924,300.22,79,5,0.62,LK,1699669171
510,jiagedaqi,50.4167,124.1167,264.98,55,55,1.92,CN,1699669172
511,sardarapat,40.1321,44.0097,280.68,60,8,0.39,AM,1699669173
512,umluj,25.0213,37.2685,302.02,39,1,2.75,SA,1699669173
513,mulanje,-16.0316,35.5,293.55,86,95,2.06,MW,1699669174
514,mili,6.0815,171.735,301.25,83,100,8.05,MH,1699669175
515,eket,4.6412,7.9209,298.01,89,100,1.89,NG,1699669176
516,alesund,62.4723,6.1549,276.67,85,26,2.57,NO,1699669177
517,forster,-32.1667,152.5167,298.92,67,0,8.53,AU,1699669178
518,arnprior,45.4334,-76.3494,275.18,81,86,3.74,CA,1699669107
519,ochobo,7.183,7.9769,296.79,97,100,2.15,NG,1699669179
520,bodaybo,57.8506,114.1933,264.08,93,100,1.07,RU,1699669180
521,formosa do rio preto,-11.0483,-45.1931,299.71,38,62,0.65,BR,1699669181
522,koshki,54.2091,50.4677,275.5,83,100,7.48,RU,1699669182
523,mirny,62.5353,113.9611,264.95,61,64,3.13,RU,1699669184
524,grand falls-windsor,48.9332,-55.6649,273.99,92,100,5.08,CA,1699669184
525,kargasok,59.0556,80.8572,270.91,95,100,4.92,RU,1699669185
526,mammoth lakes,37.6485,-118.9721,273.34,46,0,1.54,US,1699669186
527,gisborne,-38.6533,178.0042,287.49,61,19,5.31,NZ,1699669187
528,alaghsas,17.0187,8.0168,298.5,17,75,4.19,NE,1699668938
529,ain oussera,35.4514,2.9058,283.23,72,4,3.42,DZ,1699669188
530,sona,45.4388,10.8255,280.0,93,0,4.12,IT,1699669189
531,puerto armuelles,8.2833,-82.8667,302.13,84,100,3.13,PA,1699669190
532,aguas formosas,-17.0822,-40.9358,295.23,71,36,0.79,BR,1699669191
533,valparaiso,-33.0393,-71.6273,286.95,100,40,1.03,CL,1699669192
534,lensk,60.7253,114.9278,265.92,80,100,6.16,RU,1699669192
535,sanming,26.2486,117.6186,293.35,87,88,1.45,CN,1699669193
536,forde,61.4522,5.8572,277.15,74,20,1.03,NO,1699669194
537,bocaiuva,-17.1078,-43.815,296.11,38,8,2.29,BR,1699669195
538,hilo,19.7297,-155.09,297.18,93,100,4.47,US,1699669195
539,sao gabriel da cachoeira,-0.1303,-67.0892,297.08,95,100,1.04,BR,1699669196
540,muisne,0.6,-80.0333,298.02,83,100,3.58,EC,1699669197
541,santiago,-33.4569,-70.6483,288.62,89,75,1.03,CL,1699669198
542,zhangye,38.9342,100.4517,271.87,30,0,1.03,CN,1699669198
543,west end,26.6833,-78.9667,299.35,80,37,6.18,BS,1699669199
544,tierralta,8.1736,-76.0592,298.61,92,100,1.5,CO,1699669200
545,roccella ionica,38.322,16.4009,290.63,73,27,2.82,IT,1699669203
546,olyokminsk,60.3736,120.4264,264.36,89,100,3.45,RU,1699669207
547,ban nong wua so,17.2675,103.2247,303.12,68,78,2.18,TH,1699669208
548,malango,-2.9627,119.9001,295.46,89,97,0.48,ID,1699669209
549,tondano,1.3038,124.9112,299.2,62,100,0.53,ID,1699669051
550,wicklow,53.0,-6.4167,276.18,98,67,2.46,IE,1699669211
551,puerto lempira,15.2667,-83.7667,299.7,88,42,2.58,HN,1699669212
552,tobelo,1.7284,128.0095,301.87,73,94,2.33,ID,1699669212
553,mana,5.6592,-53.7767,300.0,84,33,5.38,GF,1699669214
554,vilyuysk,63.7553,121.6247,256.48,97,99,1.79,RU,1699669215
555,gamba,-2.65,10.0,296.89,94,100,2.55,GA,1699669216
556,port blair,11.6667,92.75,301.17,83,40,2.06,IN,1699669217
557,toliara,-23.35,43.6667,292.92,71,0,5.98,MG,1699669218
558,bay roberts,47.5999,-53.2648,276.67,93,89,4.02,CA,1699669219
559,jaguey grande,22.5269,-81.1286,298.37,87,7,3.84,CU,1699669220
560,hailar,49.2,119.7,257.36,89,100,3.52,CN,1699669221
561,rapid city,44.0805,-103.231,276.23,57,0,3.13,US,1699669092
562,cuajinicuilapa,16.4667,-98.4167,298.99,89,21,0.2,MX,1699669223
563,orsova,44.7253,22.3961,281.7,94,100,1.63,RO,1699669224
564,mont-dore,-22.2833,166.5833,300.14,66,88,7.81,NC,1699669225
565,undurkhaan,47.3194,110.6556,255.31,89,100,2.47,MN,1699669226
566,bogatyye saby,56.0102,50.4483,274.35,83,100,6.76,RU,1699669227
567,benguela,-12.5763,13.4055,298.58,70,100,1.76,AO,1699669228
568,langepas,61.2544,75.2124,264.41,97,99,2.07,RU,1699669229
569,kavieng,-2.5744,150.7967,302.16,72,100,6.15,PG,1699669230
570,deir ez-zor,35.3359,40.1408,293.13,44,100,2.91,SY,1699669231
571,lagos,6.5833,3.75,299.33,92,97,2.11,NG,1699669232
572,sala,34.0389,-6.8166,287.53,100,20,0.0,MA,1699669233
573,watford city,47.8022,-103.2832,274.35,86,0,4.63,US,1699668963
574,hirara,24.8,125.2833,300.07,83,75,7.2,JP,1699669234
575,carbonear,47.7332,-53.2148,276.72,89,99,9.3,CA,1699669235
576,brush,40.2589,-103.6238,281.72,23,9,0.0,US,1699669201
577,panama city beach,30.1766,-85.8055,296.22,89,100,0.0,US,1699669197
578,aitape,-3.1374,142.3475,302.78,73,100,3.16,PG,1699669238
